Restaurant ID;Restaurant Name;Menu URL;Rating;Address;Latitude;Longitude
G100050;Ramen Shifu;https://glovoapp.com/es/es/madrid/ramen-shifu-madrid/;93.0;P.º del Prado, 42, 28014 Madrid, España;40.4102757;-3.693034809038986
G10044;Buenaventura;https://glovoapp.com/es/es/madrid/buenaventura/;61.0;Paseo de Santa María de la Cabeza, 39, Madrid, Spain;40.4031023;-3.69709
G100698;Poco a Poco;https://glovoapp.com/es/es/madrid/poco-a-poco-madrid/;;Plaza de Húmera Luis García Berlanga, 2, 28223 Húmera, Madrid, España;40.42905715;-3.78544068436545
G100920;Beiben;https://glovoapp.com/es/es/madrid/beiben-madrid/;91.0;Paseo de Santa María de la Cabeza, 86, 28045 Madrid, España;40.39824955;-3.702066794907523
G100936;La Sureña;https://glovoapp.com/es/es/madrid/la-surena-madrid-norte/;;Av. Felipe II, 34, 28009 Madrid, España;40.4242;-3.6766693
G100942;Lamucca Carmen;https://glovoapp.com/es/es/madrid/lamucca-del-carmen-madrid/;98.0;Plaza del Carmen, 5, 28013 Madrid, España;40.4190175;-3.7030331
G101471;Zen Bamboo;https://glovoapp.com/es/es/madrid/zen-bamboo-madrid/;93.0;Calle del Dr. Esquerdo, 70, 28007 Madrid, España;40.4183915;-3.6693102
G101610;Dong Cheng;https://glovoapp.com/es/es/madrid/restaurante-dong-cheng-madrid-sur/;85.0;Calle del Camino de los Vinateros, 5, 28030 Madrid, España;40.4106708;-3.6594421
G101860;El Kiosko Pinar de Chamartín;https://glovoapp.com/es/es/madrid/el-kiosko-pinar-de-chamartin-madrid/;;Calle Yerma, 10, 28033 Madrid, España;40.47543795;-3.671598559794872
G102097;Doner Kebab Erebuni;https://glovoapp.com/es/es/madrid/doner-kebab-erebuni-madrid/;95.0;Calle Gran Avenida, 41, 28041 Madrid, España;40.3698936;-3.705145074935065
G102358;Bar Casa Merani;https://glovoapp.com/es/es/madrid/bar-casa-merani-madrid/;99.0;Calle de Cervantes, 19, 28014 Madrid, España;40.414889;-3.6945481
G1024;Distrito 798;https://glovoapp.com/es/es/madrid/distrito-798-madrid/;100.0;Calle del Poeta Joan Maragall, 43, 28020 Madrid, España;40.4617215;-3.6919695
G102878;Ojalá;https://glovoapp.com/es/es/madrid/ojala-madrid/;100.0;Calle de San Andrés, 1, 28004 Madrid, España;40.4254809;-3.703973
G102881;La Buha La Latina;https://glovoapp.com/es/es/madrid/la-buha-la-latina-madrid/;95.0;Plaza de la Cebada, 10, 28005 Madrid, España;40.4115682;-3.7100898
G102890;Bazaar;https://glovoapp.com/es/es/madrid/bazaar-madrid/;;Calle de la Libertad, 21, 28004 Madrid, España;40.4213354;-3.6974168
G102969;Herbívoro;https://glovoapp.com/es/es/madrid/herbivoro-madrid/;86.0;C. de Cáceres, 5, 28045 Madrid, España;40.3984693;-3.6950054
G103051;Green Tea;https://glovoapp.com/es/es/madrid/green-tea-madrid/;;Calle de Lagasca, 82, 28001 Madrid, España;40.4277645;-3.6850848
G103057;Soy Kitchen;https://glovoapp.com/es/es/madrid/soy-kitchen-madrid/;99.0;Calle de Zurbano, 59, 28010 Madrid, España;40.4359695;-3.6931682
G103107;Taquería La Lupita;https://glovoapp.com/es/es/madrid/taqueria-la-lupita-madrid/;85.0;Calle del Conde de Xiquena, 10, 28004 Madrid, España;40.4231894;-3.6940593
G103599;La Musa;https://glovoapp.com/es/es/madrid/la-musa-madrid/;99.0;Calle de Manuela Malasaña, 18, 28004 Madrid, España;40.4287864;-3.7043256
G103603;La Vera;https://glovoapp.com/es/es/madrid/final-gastronomy-madrid-norte/;;Av. Navarrondan, 27, 28702 San Sebastián de los Reyes, Madrid, España;40.5641452;-3.6298906
G103797;351 Food;https://glovoapp.com/es/es/madrid/351-food-madrid/;56.0;Calle de Toledo, 65, 28005 Madrid, España;40.411051400000005;-3.707921288684582
G103840;Manka;https://glovoapp.com/es/es/madrid/manka-madrid/;97.0;Calle de Castilla, 4, 28039 Madrid, España;40.4529321;-3.7034677
G104067;Lamucca Organik Parriya;https://glovoapp.com/es/es/madrid/lamucca-de-fuencarral-madrid/;100.0;Calle de Fuencarral, 95, 28004 Madrid, España;40.4271457;-3.7017509
G104070;Yu-Sushi;https://glovoapp.com/es/es/madrid/yu-sushi-madrid/;;Calle de Vinaroz, 16, 28002 Madrid, España;40.4455911;-3.6757671
G104144;Katia Comida Brasileña;https://glovoapp.com/es/es/madrid/katia-comida-brasilena-madrid/;94.0;C. de la Torrecilla del Leal, 29, 28012 Madrid, España;40.4099295;-3.698962
G104367;Pizza Natura Saludable Sin Gluten;https://glovoapp.com/es/es/madrid/pizza-natura-madrid/;96.0;C/ de Francisco Silvela, 78, 28028 Madrid, España;40.4299196;-3.670186
G104369;MATCHA;https://glovoapp.com/es/es/madrid/matcha-cinca-mad/;100.0;Calle del Cinca, 32, 28006 Madrid, España;40.4496023;-3.680612
G104379;MATCHA;https://glovoapp.com/es/es/madrid/matchamad/;38.0;Av. de Monforte de Lemos, 123, 28029 Madrid, España;40.4779482;-3.7100884
G104548;Alcaravea;https://glovoapp.com/es/es/madrid/alcaravea-mad-madrid/;97.0;Calle de Castelló, 83, 28006 Madrid, España;40.4321708;-3.6810271
G104626;Casa Koi;https://glovoapp.com/es/es/madrid/casa-koi-mad/;91.0;Calle de Trafalgar, 12, 28010 Madrid, España;40.4317547;-3.7003786
G104640;Piri Piri Frango Al Carbón;https://glovoapp.com/es/es/madrid/piri-piri-frango-pollo-al-carbon-madrid/;93.0;C. del Marqués de Valdeiglesias, 5, 28004 Madrid, Spain;40.4198482;-3.6972283
G104694;5 Mil Granos;https://glovoapp.com/es/es/madrid/5-mil-granos-madrid/;100.0;Calle Alcañiz, 22, 28042 Madrid, España;40.4722022;-3.5886885
G104919;Choose Ristorante Naturale;https://glovoapp.com/es/es/madrid/choose-ristone-naturale-madrid/;87.0;Calle de Segovia, 17, 28005 Madrid, España;40.4137977;-3.7126172
G105149;Restaurante Chino DA FA;https://glovoapp.com/es/es/madrid/restaurante-chino-da-fa-madrid/;91.0;Calle de Antonio López, 166, 28026 Madrid, España;40.3886881;-3.700566213664663
G105182;BEST;https://glovoapp.com/es/es/madrid/best-mad/;;Calle del Marqués de Urquijo, 4, 28008 Madrid, España;40.430693000000005;-3.7169560321565225
G106131;La pizza + Sana;https://glovoapp.com/es/es/madrid/la-pizza-mas-sana-madrid/;94.0;Av. de Machupichu, 16, 28043 Madrid, España;40.4578992;-3.624693513926887
G106173;Scarlett Real Food;https://glovoapp.com/es/es/madrid/scarlett-real-food-mad/;98.0;Plaza del Emperador Carlos V, 10, 28012 Madrid, España;40.4088414;-3.6926917
G106191;Asador de pollos Sierra Molina;https://glovoapp.com/es/es/madrid/asador-de-pollos-sierra-molina-madrid/;88.0;Calle Sierra Molina, 19, 28053 Madrid, España;40.3890578;-3.6666488
G106253;JUMBO;https://glovoapp.com/es/es/madrid/jumbo-madrid/;99.0;Calle de Gonzalo de Céspedes, 20, 28042 Madrid, España;40.4708858;-3.5791381
G107163;Oishii Sushi & Ramen;https://glovoapp.com/es/es/madrid/oishii-sushi-y-ramen-madrid/;95.0;C de Miguel Moya, 6, 28004 Madrid, España;40.4209325;-3.7055653
G107212;Casa Nina;https://glovoapp.com/es/es/madrid/casa-nina-madrid/;92.0;C. de José del Hierro, 58, 28027 Madrid, España;40.4402719;-3.6438691
G107413;Mi Cocina Asiática;https://glovoapp.com/es/es/madrid/mi-cocina-asiatica-madrid/;95.0;Calle Príncipe Carlos, 29, 28050 Madrid, España;40.4950551;-3.6585114
G107493;Universo Kebab - El Turco;https://glovoapp.com/es/es/madrid/universo-kebab-el-turco-madrid/;85.0;Calle Timón, 26, 28042 Madrid, España;40.4723484;-3.5872303
G107771;La Buha Chueca;https://glovoapp.com/es/es/madrid/la-buha-chueca-madrid/;100.0;Calle de Gravina, 6, 28004 Madrid, España;40.4231327;-3.698043
G107870;Enfu;https://glovoapp.com/es/es/madrid/enfu-madrid/;93.0;Calle de Azcona, 30, 28028 Madrid, Spain;40.4339164;-3.669936
G107911;Pronto a Mangiare;https://glovoapp.com/es/es/madrid/pronto-a-manguiare-madrid/;93.0;Calle de García de Paredes, 84, 28010 Madrid, España;40.4371559;-3.7040819
G108195;CFR Doner Kebab;https://glovoapp.com/es/es/madrid/cfr-doner-kebab-madrid/;81.0;Calle de Jaime Vera, 6, 28011 Madrid, España;40.4123215;-3.7288123
G108362;Mama Doner Kebab;https://glovoapp.com/es/es/madrid/mama-doner-kebab-madrid/;79.0;Calle de Galicia, 16, 28024 Madrid, España;40.29565525;-3.809341638265809
G108388;La Desayuneria;https://glovoapp.com/es/es/madrid/la-desayuneria-madrid/;90.0;Calle de Barbieri, 4, 28004 Madrid, Spain;40.4206889;-3.6982409
G108754;Restaurante Nemrut Kebap;https://glovoapp.com/es/es/madrid/restaurante-nemrut-kebap-segovia/;91.0;Calle de Vergara, 1, 28013 Madrid, España;40.4178118;-3.7101474
G109869;Dong Feng;https://glovoapp.com/es/es/madrid/dong-feng-madrid/;95.0;Calle de Ibiza, 23, 28009 Madrid, España;40.418368;-3.6756267
G110009;The Real Hot Dog;https://glovoapp.com/es/es/madrid/the-real-hot-dog-mad/;84.0;C. de Puerto Serrano, 14, 28045 Madrid, Spain;40.3857051;-3.6874803
G11060;La Venganza De Malinche;https://glovoapp.com/es/es/madrid/la-venganza-de-malinche-3/;41.0;Calle Duque de Osuna, 6, Madrid, Spain;40.42514;-3.7118533
G111;Sushita Café;https://glovoapp.com/es/es/madrid/sushita-cafe-madrid/;95.0;Calle de Alberto Aguilera, 52, 28015 Madrid, España;40.4305221;-3.7146551
G111047;Toro Burger Lounge;https://glovoapp.com/es/es/madrid/toro-burger-lounge-madrid/;81.0;C. de la Infanta Mercedes, 17, 28020 Madrid, España;40.4537239;-3.69942130597873
G111068;Orale Burrito;https://glovoapp.com/es/es/madrid/orale-burrito-madrid/;99.0;Paseo de Santa María de la Cabeza, 60, 28045 Madrid, España;40.4017986;-3.6987517
G111233;Shan Hai City;https://glovoapp.com/es/es/madrid/shan-hai-city-madrid/;93.0;Calle de Orense, 9, 28020 Madrid, España;40.4558515;-3.6946766
G111371;Agra Palace;https://glovoapp.com/es/es/madrid/agra-palace-madrid/;94.0;Calle de Vergara, 7, 28013 Madrid, España;40.4175851;-3.7107589
G111850;La Tomata Eguilaz;https://glovoapp.com/es/es/madrid/la-tomata-eguilaz-madrid/;89.0;Calle de Eguilaz, 2, 28010 Madrid, España;40.4293559;-3.7005957
G112448;Huerta y Corral;https://glovoapp.com/es/es/madrid/quiero-croque-mad/;;Calle Alcañiz, 22, 28042 Madrid, Spain;40.4722022;-3.5886885
G112476;Two Two Poke;https://glovoapp.com/es/es/madrid/two-two-poke-madrid/;93.0;Paseo de Valdelasfuentes, 9, 28100 Alcobendas, Madrid, España;40.5513853;-3.6539278
G112762;The Grill House;https://glovoapp.com/es/es/madrid/the-gril-house-madrid/;88.0;C/ de Magallanes, 17, 28015 Madrid, España;40.4348068;-3.7057766
G113318;India Máster Chef;https://glovoapp.com/es/es/madrid/india-master-chef-madrid/;88.0;Calle Azabache, 6, 28019 Madrid, España;40.3923559;-3.7249532
G113334;Comida Saludable Asiática;https://glovoapp.com/es/es/madrid/comida-saludable-asiatica-madrid/;85.0;Calle de Caleruega, 7, 28033 Madrid, España;40.4771278;-3.6692044
G113444;Grill House;https://glovoapp.com/es/es/madrid/poke-grill-house-madrid/;;C/ de Magallanes, 17, 28015 Madrid, España;40.4348068;-3.7057766
G11345;Ornella;https://glovoapp.com/es/es/madrid/ornella/;94.0;Calle de Velázquez, 18, Madrid, Spain;40.4233344;-3.6841057
G114305;Café Viena;https://glovoapp.com/es/es/madrid/cafe-viena-madrid/;100.0;Calle de Luisa Fernanda, 23, 28008 Madrid, España;40.4251017;-3.7155406
G114420;Doner Kebab Delicias;https://glovoapp.com/es/es/madrid/doner-kebab-delicias-madrid/;96.0;Calle de Bustamante, 7, 28045 Madrid, España;40.4009705;-3.692872925717
G114428;Locco'Pizza;https://glovoapp.com/es/es/madrid/loccopizza-madrid/;81.0;Av. Oporto, 104, 28019 Madrid, España;40.3864007;-3.7244071
G114429;Casa Dim - Sum;https://glovoapp.com/es/es/madrid/happy-garten-madrid/;;Calle de Francisco Silvela, 15, 28028 Madrid, España;40.4301468;-3.6708179
G115436;Beykebap;https://glovoapp.com/es/es/madrid/beykebap-las-rosas-madrid/;98.0;Av. de Guadalajara, 2, 28032 Madrid, España;40.418204;-3.6207575
G116142;Avocado Mex;https://glovoapp.com/es/es/madrid/avocado-mex-madrid/;97.0;C. de Alejandro González, 5, 28028 Madrid, España;40.4299841;-3.663366
G116246;The Best Kebab;https://glovoapp.com/es/es/madrid/the-best-kebab-madrid/;82.0;Av. de Ntra. Sra. de Valvanera, 115, 28025 Madrid, Spain;40.39112;-3.7375108
G116429;The Best Kebab;https://glovoapp.com/es/es/madrid/the-best-kebab-madrid2/;82.0;Av. de Ntra. Sra. de Valvanera, 115, 28025 Madrid, Spain;40.39112;-3.7375108
G118184;Sushi 8;https://glovoapp.com/es/es/madrid/sushi-8-madrid/;100.0;Calle Sor María de Ágreda, 17, 28017 Madrid, Spain;40.43010065;-3.6493873758037294
G118264;La Parrilla De Salamanca;https://glovoapp.com/es/es/madrid/la-parrilla-de-salamanca-madrid/;99.0;Calle de Padilla, 56, 28006 Madrid, España;40.4311994;-3.6773443
G118324;Juanyta me Mata;https://glovoapp.com/es/es/madrid/juanyta-me-mata-madrid/;;Calle de Diego de León, 60, 28006 Madrid, España;40.4344836;-3.6766834
G118351;Manzana Roja;https://glovoapp.com/es/es/madrid/manzana-roja-madrid/;98.0;Calle de Poitiers, 6, 28821 Coslada, Madrid, España;40.4210372;-3.5678982
G118379;Pizza Radical;https://glovoapp.com/es/es/madrid/pizza-radical-madrid/;89.0;Calle de Hartzenbusch, 8, 28010 Madrid, España;40.4302688;-3.7021936
G118384;Cocina Asiática Go;https://glovoapp.com/es/es/madrid/cocina-asiatica-go-madrid/;;Calle Bormonia, 7, 28037 Madrid, España;40.4379697;-3.6372183
G118392;La Pequeñita A Domicilio;https://glovoapp.com/es/es/madrid/la-pequenita-a-domicilio-las-tablas-madrid/;100.0;Calle de María Tubau, 15, 28050 Madrid, España;40.5120278;-3.6768855
G118731;Tacos Don Manolito;https://glovoapp.com/es/es/madrid/tacos-don-manolito-mad/;80.0;Calle de Ponzano, 91, 28003 Madrid, España;40.442286;-3.6990273
G119085;Deseos de Catrina;https://glovoapp.com/es/es/madrid/deseos-de-la-catrina-madrid/;70.0;Calle de Berrocal, 12, 28021 Madrid, España;40.6851862;-3.9642235
G119289;Bastardi;https://glovoapp.com/es/es/madrid/bastardi-madrid/;82.0;Calle de Caracas, 1, 28010 Madrid, España;40.4307322;-3.6951902
G119497;Anarkoli;https://glovoapp.com/es/es/madrid/anarkori-madrid/;95.0;Calle de Lavapiés, 46, 28012 Madrid, España;40.4095531;-3.702254
G119561;Wrap & Burger;https://glovoapp.com/es/es/madrid/wrap-and-burger-madrid/;94.0;Calle Azabache, 10, 28019 Madrid, Spain;40.3923559;-3.7249532
G119565;Burger Lola;https://glovoapp.com/es/es/madrid/burger-lola-mad/;81.0;Av. de Orovilla, 46, 28041 Madrid, Spain;40.3602932;-3.6899215
G119573;Fast Burger;https://glovoapp.com/es/es/madrid/fast-burger-madrid/;96.0;Calle Manchester, 12, 28022 Madrid, Spain;40.3526528;-3.8350134
G119578;TakoTako;https://glovoapp.com/es/es/madrid/takotako-madrid/;;Calle José Calvo, 10, 28039 Madrid, Spain;40.4576911;-3.7079547
G120485;Restaurante L'Alsace;https://glovoapp.com/es/es/madrid/restaurante-lalsace-madrid/;100.0;Av. de Monforte de Lemos, 36, 28029 Madrid, España;40.4791003;-3.7082505
G120541;Nossum;https://glovoapp.com/es/es/madrid/nossum-madrid/;;Calle de Alcalá, 638, 28022 Madrid, España;40.4490478;-3.6080699
G120551;Delicasa;https://glovoapp.com/es/es/madrid/mas-ke-rico-madrid/;98.0;Av. de la Constitución, 85, 28823 Coslada, Madrid, España;40.427573;-3.5547409954957345
G120626;Food Craft;https://glovoapp.com/es/es/madrid/food-craft-madrid/;;Calle Araucaria, 19, 28039 Madrid, España;40.4603469;-3.6998712
G120739;Fritz Foods;https://glovoapp.com/es/es/madrid/fritz-foods-madrid/;72.0;Calle de Toledo, 27, 28005 Madrid, España;40.4137738;-3.707375
G120874;Bowl & Burger;https://glovoapp.com/es/es/madrid/bowl-and-burger-madrid/;;Glorieta López de Hoyos, 08, 28002 Madrid, Spain;40.4403133;-3.6802822
G121033;Kinza;https://glovoapp.com/es/es/madrid/kinza-madrid/;98.0;Calle de San Bernardo, 22, 28015 Madrid, España;40.4230039;-3.7074294
G121106;Restaurante Hipódromo;https://glovoapp.com/es/es/madrid/restaurante-hipodromo-london-pub-madrid/;97.0;Calle Francisco Ayala, 12, 28702 San Sebastián de los Reyes, Madrid, España;40.5638041;-3.6121557
G121107;Bar Restaurante Perla Ecuatoriana;https://glovoapp.com/es/es/madrid/bar-restaurante-perla-ecuatoriana-madrid/;77.0;Calle de Teruel, 9, 28020 Madrid, España;40.4514776;-3.7015665
G121752;L'Entrecote Café de París;https://glovoapp.com/es/es/madrid/lentrecote-cafe-de-paris-madrid/;89.0;Calle Félix Boix, 8, 28036 Madrid, España;40.4632044;-3.6879227
G122076;Moose;https://glovoapp.com/es/es/madrid/moose-madrid/;;Pl. de la Coronación, 13, 28223 Pozuelo de Alarcón, Madrid, España;40.4355948;-3.8166158
G122338;La Elegida;https://glovoapp.com/es/es/madrid/la-elegida-mad/;;Calle de Trafalgar, 15, 28010 Madrid, España;40.4317969;-3.7008063
G122414;Gragnano Pasta 100% Italia;https://glovoapp.com/es/es/madrid/gragnano-pasta-100percent-italia-madrid/;59.0;Paseo de Santa María de la Cabeza, 39, 28045 Madrid, España;40.4031023;-3.69709
G122429;Gonzalez & Co Burrito & Bowl;https://glovoapp.com/es/es/madrid/gonzalez-and-co-store-madrid/;95.0;C. de Velázquez, 87, 28006 Madrid, España;40.4337337;-3.6835985
G122830;PerretxiCo;https://glovoapp.com/es/es/madrid/perretxico-madrid/;;Calle Rafael Calvo, 29, 28010 Madrid, España;40.4339847;-3.6932076
G122908;La Especial Sándwiches & Salads;https://glovoapp.com/es/es/madrid/la-especial-sandwiches-and-salads-madrid/;;Av. del Monasterio de Silos, 63, 28049 Madrid, España;40.5037656;-3.7109163
G123188;Restaurante El Imparcial;https://glovoapp.com/es/es/madrid/restaurante-el-imparcial-madrid/;;Calle del Duque de Alba, 4, 28012 Madrid, España;40.4119482;-3.7058364
G123223;Pizza & Gatos;https://glovoapp.com/es/es/madrid/pizza-and-gatos-madrid/;100.0;C. de Etruria, 11, 28022 Madrid, Spain;40.4372347;-3.6082014
G1239;San Wich;https://glovoapp.com/es/es/madrid/san-wich/;;Calle del Espíritu Santo, 3, Madrid, Spain;40.4249394;-3.7023499
G124127;El Nuevo Zaguán;https://glovoapp.com/es/es/madrid/el-nuevo-zaguan-madrid/;100.0;Av. de la Osa Mayor, 70, 28023 Madrid, España;40.4561632;-3.7893826
G124944;Pizza y Pasta La Mia Mamma;https://glovoapp.com/es/es/madrid/pizza-y-pasta-la-mia-mamma-madrid/;;Calle José Calvo, 10, 28039 Madrid, España;40.4576911;-3.7079547
G125070;Cervecería La Tomasa;https://glovoapp.com/es/es/madrid/cerveceria-la-tomasa-madrid/;95.0;Calle de Puentelarra, 12, 28031 Madrid, Spain;40.3831378;-3.6092902
G125341;Asador Casa Juan;https://glovoapp.com/es/es/madrid/asador-casa-juan-madrid/;93.0;Calle de la Infanta Mercedes, 111, 28020 Madrid, España;40.4640775;-3.6931737
G125370;El toledano;https://glovoapp.com/es/es/madrid/el-toledano-madrid/;92.0;Av. de Asturias, 59, 28029 Madrid, Spain;40.4713603;-3.6987361
G125575;El Artesano;https://glovoapp.com/es/es/madrid/el-artesano-madrid/;88.0;Calle de Puerto Rico, 9, 28016 Madrid, España;40.455113;-3.6741403
G126442;Pe De Pisco;https://glovoapp.com/es/es/madrid/pe-de-pisco-madrid/;84.0;Calle de la Aduana, 5, 28013 Madrid, España;40.4183018;-3.7017555
G126724;La Cocina de Victor;https://glovoapp.com/es/es/madrid/starchys-madrid/;86.0;Calle de Juan Ramón Jiménez, 18, 28100 Alcobendas, Madrid, Spain;40.546376;-3.6585406
G126759;The Real Greek Pitas;https://glovoapp.com/es/es/madrid/the-real-greek-mad/;79.0;C. de Puerto Serrano, 14, 28045 Madrid, Spain;40.3857051;-3.6874803
G127586;Happy Burger;https://glovoapp.com/es/es/madrid/happy-burger-madrid/;73.0;C. de Cáceres, 5, 28045 Madrid, España;40.3984693;-3.6950054
G127722;HEARTBEST;https://glovoapp.com/es/es/madrid/heartbest-madrid/;;Calle de Arlabán, 1, 28014 Madrid, España;40.4170322;-3.6995917
G1278;Bump Green;https://glovoapp.com/es/es/madrid/bumpgreen/;93.0;Bumpgreen, Calle de Velázquez, 11, 28001 Madrid, Spain;40.4221279;-3.684555
G127845;Baby Grill Rubaiyat;https://glovoapp.com/es/es/madrid/restaurante-rubaiyat-madrid/;96.0;Calle de Juan Hurtado de Mendoza, 11, 28036 Madrid, España;40.4605326;-3.687008
G128346;Mundo Kebap.;https://glovoapp.com/es/es/madrid/mundo-kebap-madrid/;100.0;Calle de la Montera, 24, 28013 Madrid, España;40.4184199;-3.7022369
G128509;BarraCruda Mercado;https://glovoapp.com/es/es/madrid/kempo-madrid/;;C. de Ibiza, 8, 28009 Madrid, España;40.41798685;-3.67747430293794
G128543;Euro Taco;https://glovoapp.com/es/es/madrid/euro-taco-madrid/;48.0;Calle del Dr. Esquerdo, 19, 28028 Madrid, España;40.4260095;-3.6683251
G128581;Apartaco;https://glovoapp.com/es/es/madrid/apartaco-madrid/;91.0;Calle de Luchana, 7, 28010 Madrid, España;40.4296277;-3.701468
G129159;La Tabernita De Dominguez;https://glovoapp.com/es/es/madrid/la-tabernita-de-dominguez-madrid/;100.0;C. de López de Hoyos, 409, 28043 Madrid, España;40.471154;-3.6503995
G129378;Pizzería Nuns;https://glovoapp.com/es/es/madrid/pizzeria-nuns-madrid/;92.0;Calle de la Infanta Mercedes, 103, 28020 Madrid, España;40.4634417;-3.6937544
G129565;Galaxy Kebab Pizza;https://glovoapp.com/es/es/madrid/galaxy-kebap-pizza-madrid/;85.0;Glorieta Embajadores, 4, 28012 Madrid, España;40.4052298;-3.7024086
G129638;Kebab Paradise Fried Chiken;https://glovoapp.com/es/es/madrid/kbab-mad/;96.0;C. de Anastasia López, 17, 28034 Madrid, España;40.4953014;-3.6911389
G129673;Miss Sushi;https://glovoapp.com/es/es/madrid/miss-sushi-mad/;95.0;Vía de las Dos Castillas, 33, 28224 Pozuelo de Alarcón, Madrid, España;40.4403647;-3.7866375
G129882;GREEK GREEN;https://glovoapp.com/es/es/madrid/greek-green-madrid/;;Calle del León, 17, 28014 Madrid, España;40.413757700000005;-3.69883490438328
G1300;Restaurante Sagar;https://glovoapp.com/es/es/madrid/restaurante-sagar-madrid/;94.0;Calle Alonso Heredia, 22, 28028 Madrid, España;40.4357631;-3.6724837
G13022;Pipa&Co;https://glovoapp.com/es/es/madrid/pipaco-madrid/;94.0;Paseo de la Habana, 105, Madrid, Spain;40.4587961;-3.6819941
G130583;Poke House;https://glovoapp.com/es/es/madrid/poke-house-madrid/;93.0;Plaza de Sta. Bárbara, 9, 28004 Madrid, España;40.4267047;-3.6961684
G130970;Chino Fino;https://glovoapp.com/es/es/madrid/chinofino-madrid/;;Calle San Leopoldo, 8, 28029 Madrid, España;40.4693677;-3.6901828
G13106;Restaurante Maytetxu;https://glovoapp.com/es/es/madrid/restaurante-maytetxu/;92.0;Calle de Berrocal, 5, Madrid, Spain;40.6874583;-3.962194
G13113;Pollos Gourmet;https://glovoapp.com/es/es/madrid/pollos-gourmet/;89.0;Calle Mateo García, 13, Madrid, Spain;40.4316449;-3.653007
G131272;Dionisos Huertas;https://glovoapp.com/es/es/madrid/dionisos-huertas-mad-0/;;Calle del León, 17, 28014 Madrid, España;40.413757700000005;-3.69883490438328
G131274;LS Fusion;https://glovoapp.com/es/es/madrid/ls-fusion-madrid/;;Calle de José Ortega y Gasset, 90, 28006 Madrid, España;40.4295932;-3.6719607
G131726;Ya Sushi Coslada;https://glovoapp.com/es/es/madrid/ya-sushi-coslada-madrid/;87.0;Calle Dr. Michavila, 18, 28821 Coslada, Madrid, España;40.4278704;-3.562244
G1320;Burnout;https://glovoapp.com/es/es/madrid/burnout-madrid1/;94.0;Calle de Fuencarral, 148, 28010 Madrid, Spain;40.4325089;-3.7036904
G132425;Sultan Palast Plaza Río 2;https://glovoapp.com/es/es/madrid/sultan-palast-plaza-rio-madrid/;41.0;Av del Manzanares, 210, 28026 Madrid, España;40.3917868;-3.7015343
G132522;Mune;https://glovoapp.com/es/es/madrid/mune-pelayo-madrid/;85.0;Calle de Pelayo, 57, 28004 Madrid, Spain;40.4247724;-3.697031
G132557;JUNK;https://glovoapp.com/es/es/madrid/junk-burger-madrid/;94.0;Calle de José Abascal, 31, 28003 Madrid, España;40.4385242;-3.6984226
G132558;Bizzo;https://glovoapp.com/es/es/madrid/bizzo-madrid/;98.0;C. de Andrés Mellado, 77, 28003 Madrid, España;40.4395224;-3.7141628
G133163;Cruz Blanca;https://glovoapp.com/es/es/madrid/cruz-blanca-2-madrid/;100.0;Calle de Hortaleza, 118, 28004 Madrid, España;40.4260767;-3.6967788
G133202;Kebab Entrevias;https://glovoapp.com/es/es/madrid/kebab-entrevias-madrid/;96.0;Calle del Puerto de Balbarán, 31, 28018 Madrid, España;40.3777264;-3.6584773
G133285;Sas Doner Kebab;https://glovoapp.com/es/es/madrid/sas-doner-kebab-madrid/;94.0;Calle de Antonio López, 33, 28019 Madrid, España;40.396251;-3.7122635
G133287;Ruta 108;https://glovoapp.com/es/es/madrid/ruta-108-madrid/;89.0;Calle del Dr. Esquerdo, 108, 28007 Madrid, España;40.4096025;-3.6702245
G133295;Kebab Carpetana;https://glovoapp.com/es/es/madrid/kebab-madrid/;89.0;Calle Vía Carpetana, 143, 28047 Madrid, España;40.4021873;-3.7300808
G133374;KultO;https://glovoapp.com/es/es/madrid/kulto-leganes-getafe/;98.0;Calle de Ibiza, 4, 28009 Madrid, España;40.4182313;-3.6780915
G133460;Karibu Sushi;https://glovoapp.com/es/es/madrid/karibu-sushi-madrid/;99.0;Calle Castalia de Vallecas, 8, 28038 Madrid, Spain;40.3936754;-3.6579749
G133506;Tsuri Sushi & Poke.;https://glovoapp.com/es/es/madrid/tsuri-venezuelan-style-madrid/;;Calle de San Emilio, 8, 28017 Madrid, España;40.4293097;-3.6592219
G133528;Katz;https://glovoapp.com/es/es/madrid/katz-madrid/;91.0;Calle de Gabriel Lobo, 24, 28002 Madrid, España;40.4425761;-3.6811011
G133541;Nur Kebab Restaurante;https://glovoapp.com/es/es/madrid/nur-kebab-restaurante-mad/;;Calle de Ofelia Nieto, 73, 28039 Madrid, España;40.4622539;-3.7085481
G133895;El Telégrafo;https://glovoapp.com/es/es/madrid/el-telegrafo-madrid/;96.0;C. del Padre Damián, 44, 28036 Madrid, España;40.4597031;-3.6852714
G134090;La Leñera;https://glovoapp.com/es/es/madrid/la-lenera-madrid/;82.0;Calle de Hernani, 60, 28020 Madrid, España;40.4480236;-3.6969828
G134644;El Barril De Alcántara;https://glovoapp.com/es/es/madrid/el-barril-de-alcantara-madrid/;100.0;Calle de Alcántara, 30, 28006 Madrid, España;40.4479369;-3.6860741
G134678;Restaurante Oter;https://glovoapp.com/es/es/madrid/restaurante-oter-madrid/;97.0;Calle de Claudio Coello, 71, 28001 Madrid, España;40.4224667;-3.686977
G134713;El Barril Express;https://glovoapp.com/es/es/madrid/el-barril-express-madrid/;99.0;Calle de Alcántara, 73, 28006 Madrid, España;40.4479369;-3.6860741
G134718;El Barril De Las Cortes;https://glovoapp.com/es/es/madrid/el-barril-de-las-cortes-madrid/;86.0;Carrera de S. Jerónimo, 17, 28014 Madrid, España;40.4166656;-3.6988101
G134904;DeliZielou;https://glovoapp.com/es/es/madrid/zielou-madrid/;99.0;Estación de Chamartín, s/n, 28036 Madrid, España;40.6469283;-3.7884541
G134905;Don Tortilla;https://glovoapp.com/es/es/madrid/don-tortilla-rivas-arganda/;60.0;Calle de Goya, 119, 28009 Madrid, Spain;40.42472;-3.6715502
G134977;Pisco41;https://glovoapp.com/es/es/madrid/pisco41-madrid/;;Calle de San Nicolás, 8, 28013 Madrid, España;40.4159828;-3.711718
G134982;Teitu;https://glovoapp.com/es/es/madrid/teitu-madrid/;95.0;Calle del Poeta Joan Maragall, 20, 28020 Madrid, España;40.4568868;-3.6920053
G135032;Gran Barril de Goya;https://glovoapp.com/es/es/madrid/gran-barril-madrid/;94.0;Calle de Goya, 107, 28009 Madrid, España;40.4245542;-3.6710387
G135084;El Barril de Recoletos;https://glovoapp.com/es/es/madrid/el-barril-de-recoletos-madrid/;92.0;Calle de Recoletos, 9, 28001 Madrid, España;40.421281;-3.6887568
G135125;Asador Gerardo;https://glovoapp.com/es/es/madrid/asador-gerardo-madrid/;95.0;Calle de Don Ramón de la Cruz, 86, 28006 Madrid, España;40.428497;-3.6729039
G135127;Evin Kebap Y Pizza;https://glovoapp.com/es/es/madrid/evin-kebap-y-pizza-madrid/;86.0;Calle de Francos Rodríguez, 46, 28039 Madrid, España;40.4566866;-3.7058053
G135425;Porto Bello Heladería Artesanal Italiana;https://glovoapp.com/es/es/madrid/porto-bello-heladeria-artesanal-italiana-madrid/;100.0;Paseo de Juan Antonio Vallejo-Nájera Botas, 46, 28005 Madrid, España;40.4032065;-3.7128314
G135536;Burger & Hotdog 10;https://glovoapp.com/es/es/madrid/burger-and-hotdog-10-madrid/;;Calle de Barbieri, 10, 28004 Madrid, Spain;40.4210684;-3.6981171
G135642;Samosa King;https://glovoapp.com/es/es/madrid/samosa-king-madrid/;91.0;Calle Azabache, 6, 28019 Madrid, España;40.3923559;-3.7249532
G13593;Fridays;https://glovoapp.com/es/es/madrid/fridays-5/;84.0;Calle Adolfo Bioy Casares, 37, 28031 Madrid, España;40.5000646;-3.3719527
G136;Le Pain Quotidien;https://glovoapp.com/es/es/madrid/le-pain-quotidien-madrid/;95.0;Calle Serrano, 27, 28001 Madrid, España;40.4271061;-3.6877225
G136071;Yugo The Bunker;https://glovoapp.com/es/es/madrid/yugo-the-bunker-madrid-1/;87.0;Calle de San Blas, 4, 28014 Madrid, España;40.410375;-3.6938335
G136204;Kin Sushi;https://glovoapp.com/es/es/madrid/kin-sushi-madrid/;95.0;Calle del Duque de Sesto, 48, 28009 Madrid, España;40.4222271;-3.6735107
G136613;Streat Lab;https://glovoapp.com/es/es/madrid/streat-lab-madrid/;57.0;Calle Pico de la Maliciosa, 6, 28038 Madrid, España;40.3939553;-3.657302046494334
G136631;Pastelería Cala Millor;https://glovoapp.com/es/es/madrid/pasteleria-cala-millor-madrid2/;93.0;Calle Príncipe Carlos, 38, 28050 Madrid, España;40.4950551;-3.6585114
G136741;Trattoria Manzoni;https://glovoapp.com/es/es/madrid/trattoria-manzoni-madrid/;91.0;C. de Rosario Pino, 6, 28020 Madrid, España;40.4621959;-3.6911748
G136753;Real Estambul Doner Kebad y Pizza;https://glovoapp.com/es/es/madrid/real-estambul-madrid/;61.0;Calle de Bravo Murillo, 193, 28020 Madrid, España;40.4546024;-3.7029863
G137280;Muerde La Pizza;https://glovoapp.com/es/es/madrid/muerde-la-pizza-madrid/;92.0;Paseo de Extremadura, 136, 28011 Madrid, España;40.410782;-3.7366725
G137425;Vinitus Gran Via Madrid;https://glovoapp.com/es/es/madrid/vinitus-gran-via-madrid-madrid/;99.0;C. de la Reina, 24, 28004 Madrid, España;40.4201171;-3.6994087
G137569;Delhi Express Restaurante;https://glovoapp.com/es/es/madrid/delhi-express-restaurante-madrid/;93.0;Calle de Lavapiés, 44, 28012 Madrid, España;40.4096918;-3.7023153
G137838;Beverly Beer;https://glovoapp.com/es/es/madrid/beverly-beer-madrid/;99.0;Paseo Lanceros, 2, 28024 Madrid, España;40.3790165;-3.792758
G137866;La Tushpa Restaurante;https://glovoapp.com/es/es/madrid/la-tushpa-restaurante-madrid/;100.0;Calle Benidorm, 9, 28017 Madrid, España;40.4309311;-3.6558864
G137897;Kebab Legazpi;https://glovoapp.com/es/es/madrid/kebab-legazpi-madrid/;92.0;Paseo del Molino, 1, 28045 Madrid, España;40.3898639;-3.6926342
G137943;Restaurante El Rincón de Conchi;https://glovoapp.com/es/es/madrid/restaurante-el-rincon-de-conchi-madrid/;98.0;Calle de Jaén, 42, 28020 Madrid, España;40.4503852;-3.7007188
G138196;Latitud 33;https://glovoapp.com/es/es/madrid/latitud-33-madrid/;;Av. del Dr. Federico Rubio y Galí, 112, 28040 Madrid, España;40.4572628;-3.7130435
G138242;TROPICALISSIMA;https://glovoapp.com/es/es/madrid/tropicalissima-madrid/;90.0;Av. Oporto, 14, 28019 Madrid, España;40.3864007;-3.7244071
G138419;El Barril de las Letras;https://glovoapp.com/es/es/madrid/el-barril-de-las-letras-madrid/;98.0;Calle de Cervantes, 28, 28014 Madrid, España;40.414889;-3.6945481
G13844;Wasabi Green;https://glovoapp.com/es/es/madrid/wasabi-green/;87.0;Av. de Manoteras, 40, 28050 Madrid, España;40.4862789;-3.665652
G138555;Roost Chicken;https://glovoapp.com/es/es/madrid/roost-chicken-madrid/;91.0;Calle de San Andrés, 26, 28004 Madrid, España;40.427347;-3.7035357
G138565;La Casa Del Curry;https://glovoapp.com/es/es/madrid/la-casa-del-curry-madrid/;;Calle del Corazón de María, 57, 28002 Madrid, España;40.4473312;-3.6666598
G138866;Briochef;https://glovoapp.com/es/es/madrid/briochef-madrid/;90.0;Paseo de la Florida, 21, 28008 Madrid, España;40.42179635;-3.722318508087284
G138947;The Real Food Co.;https://glovoapp.com/es/es/madrid/the-real-food-co-mad/;77.0;C. de Puerto Serrano, 14, 28045 Madrid, Spain;40.3857051;-3.6874803
G138959;Replay;https://glovoapp.com/es/es/madrid/replay-madrid/;77.0;Av. del Mediterráneo, 12, 28007 Madrid, España;40.4070087;-3.6767284377819647
G138968;Divinos Pizza Napolitana;https://glovoapp.com/es/es/madrid/divinos-pizza-napolitana-madrid/;88.0;C. de la Cerámica, 5, 28038 Madrid, España;40.4047722;-3.6565475
G1390;Roll Madrid;https://glovoapp.com/es/es/madrid/roll-2/;;Calle Amaniel, 23, 28015 Madrid, Spain;40.4271135;-3.7096169
G139223;Ramen Kagura Atocha;https://glovoapp.com/es/es/madrid/ramen-kagura-atocha-madrid/;98.0;Calle de Sebastián Elcano, 29, 28012 Madrid, España;40.4051323;-3.6970098
G139237;CHORIPANPAN;https://glovoapp.com/es/es/madrid/choripanpan-mad/;;Calle de Ferroviarios, 98, 28026 Madrid, España;40.3833924;-3.7047305
G139253;Tsukuri Soba;https://glovoapp.com/es/es/madrid/tsukuri-soba-madrid/;87.0;C. de Andrés Mellado, 5, 28015 Madrid, España;40.4310638;-3.7146995
G139280;Le Blend;https://glovoapp.com/es/es/madrid/le-blend-madrid/;68.0;Calle de la del Manojo de Rosas, 49, 28041 Madrid, España;40.35691175;-3.6968868647175137
G139288;Bar La Caña - Cocina Peruana;https://glovoapp.com/es/es/madrid/bar-la-cana-madrid/;99.0;Calle de Juan de Olias, 4, 28020 Madrid, España;40.4534049;-3.702397
G139457;BURGER DELICIOUS;https://glovoapp.com/es/es/madrid/burger-delicious-mad/;;Calle de Ferroviarios, 98, 28026 Madrid, España;40.3833924;-3.7047305
G139692;Restaurante Los Galayos;https://glovoapp.com/es/es/madrid/restaurante-los-galayos-madrid/;90.0;Calle de Botoneras, 5, 28012 Madrid, España;40.415043;-3.7065602
G139778;Restaurante La Playa;https://glovoapp.com/es/es/madrid/restaurante-la-playa-madrid/;;C/ de Magallanes, 24, 28015 Madrid, España;40.4342012;-3.7055754
G139799;kisoro Sushi;https://glovoapp.com/es/es/madrid/kisoro-sushi-madrid/;85.0;C. Laponia, 5, 28030 Madrid, España;40.40563505;-3.6274352324574735
G139815;My Burguer Alcobendas;https://glovoapp.com/es/es/madrid/myburguer-alcobendas-madrid/;;Calle del Pintor Rosales, 10, 28100 Alcobendas, Madrid, España;40.5383478;-3.6393414
G140011;Limbo Bernabéu;https://glovoapp.com/es/es/madrid/limbo-bernabeu-madrid/;97.0;C. de Manuel de Falla, 5, 28036 Madrid, Spain;40.42306905;-3.533113788888889
G140131;Punto de Encuentro II;https://glovoapp.com/es/es/madrid/punto-de-encuentro-ii-madrid/;92.0;Av. de la Institución Libre de Enseñanza, 45, 28037 Madrid, España;40.4303521;-3.6321906
G140139;Mercado 100 Montaditos y La Sureña;https://glovoapp.com/es/es/madrid/mercado-100-montaditos-y-la-surena-madrid/;87.0;Av. de Manoteras, 40, 28050 Madrid, España;40.4862789;-3.665652
G140141;Badsha Indian Restaurant;https://glovoapp.com/es/es/madrid/badsha-indian-restaurant-madrid/;75.0;Calle José Calvo, 6, 28039 Madrid, España;40.4574098;-3.707832
G140294;Viena Madrid;https://glovoapp.com/es/es/madrid/viena-madrid-mad/;100.0;Calle de Bordadores, 9, 28013 Madrid, España;40.4169151;-3.7074425
G140547;Cafetería Cervecería La Oficina;https://glovoapp.com/es/es/madrid/cafeteria-cerveceria-la-oficina-madrid/;;Calle Gabriel Celaya, 1, 28830 San Fernando de Henares, Madrid, España;40.4217211;-3.5325541
G140555;Sakura Mini;https://glovoapp.com/es/es/madrid/sakura-mini-mad/;95.0;Paseo de la Chopera, 194, 28100 Alcobendas, Madrid, España;40.5447212;-3.6491528
G140784;La Garriga;https://glovoapp.com/es/es/madrid/la-garriga-madrid/;97.0;Paseo de la Castellana, 153, 28046 Madrid, España;40.4609686;-3.6904814
G140855;Chinawok Express;https://glovoapp.com/es/es/madrid/chinawok-express-madrid/;93.0;Calle de la Alianza, 33, 28041 Madrid, España;40.3577494;-3.6868921
G140936;Kebab Arca de Noé;https://glovoapp.com/es/es/madrid/arca-de-noe-madrid/;93.0;Calle Príncipe Carlos, 20, 28050 Madrid, España;40.4876203;-3.6508221
G140960;Restaurante Casa Lafu;https://glovoapp.com/es/es/madrid/restaurante-casa-lafu-madrid/;93.0;Calle de la Flor Baja, 1, 28013 Madrid, España;40.4219731;-3.7094562
G140962;Catasa;https://glovoapp.com/es/es/madrid/catasa-madrid/;;Av. de Filipinas, 54, 28003 Madrid, España;40.4405936;-3.7086703
G141201;Star Kebab & Pollo Asado;https://glovoapp.com/es/es/madrid/star-kebab-and-pollo-asado-madrid/;94.0;Calle Benadalid, 6, 28018 Madrid, España;40.38596835;-3.638880762519106
G141204;The Pacifik;https://glovoapp.com/es/es/madrid/the-pacifik-madrid/;;Calle Caridad, 9, 28007 Madrid, España;40.40223185;-3.675556855647014
G141207;DIONISOS GREEN;https://glovoapp.com/es/es/madrid/dionisos-green-madrid/;;Calle del León, 17, 28014 Madrid, España;40.413757700000005;-3.69883490438328
G141208;The Container;https://glovoapp.com/es/es/madrid/the-container-madrid/;;Av. de la Victoria, 7, 28023 Madrid, España;40.46614195;-3.80946891332292
G141341;Petit Appetit;https://glovoapp.com/es/es/madrid/petit-appetit-madrid/;91.0;Calle de Miguel Ángel, 18, 28010 Madrid, España;40.435761;-3.6914708
G142165;Green & Crust by Mi Baguette;https://glovoapp.com/es/es/madrid/mi-baguette-madrid/;88.0;C. de Nanclares de Oca, 10, 28022 Madrid, España;40.4442577;-3.5794291
G142167;A'Fenestella;https://glovoapp.com/es/es/madrid/afenestella-madrid/;95.0;Calle de Torquemada, 25, 28043 Madrid, España;40.4684417;-3.6384778
G142173;Paposky Madrid;https://glovoapp.com/es/es/madrid/paposky-madrid-madrid/;;Calle de Antillón, 9, 28011 Madrid, España;40.4120427;-3.7280208
G142314;Kebab Burger;https://glovoapp.com/es/es/madrid/kebab-burger-madrid/;92.0;Calle Atenas, 2, 28224 Pozuelo de Alarcón, Madrid, España;40.4346245;-3.7984014
G142449;The Catay Express;https://glovoapp.com/es/es/madrid/catay-mad/;;Calle del Cardenal Cisneros, 6, 28010 Madrid, España;40.4299037;-3.7015426
G142757;Tsuri Sushi & Poke;https://glovoapp.com/es/es/madrid/tsuri-sushi-and-poke-madrid/;;Calle de San Emilio, 8, 28017 Madrid, Spain;40.4293097;-3.6592219
G142835;Freaking Good Pizza;https://glovoapp.com/es/es/madrid/freaking-good-pizza-madrid/;;Calle José Calvo, 10, 28039 Madrid, España;40.4576911;-3.7079547
G14284;The Big Big Cocina;https://glovoapp.com/es/es/madrid/the-big-big-cocina/;95.0;Calle de Francisco Silvela, 15, Madrid, Spain;40.4301468;-3.6708179
G1430;Everest Tandoori;https://glovoapp.com/es/es/madrid/everest-tandoori-madrid/;99.0;Calle de Pegaso, 13, 28043 Madrid, España;40.3069318;-3.8680792
G143838;La Marquesa Café;https://glovoapp.com/es/es/madrid/la-marquesa-cafe-madrid/;;Calle de Hortaleza, 22, 28004 Madrid, España;40.421323;-3.7002811
G144053;Maria Canela Burger;https://glovoapp.com/es/es/madrid/maria-canela-burger-madrid/;;Calle del Cardenal Cisneros, 37, 28010 Madrid, España;40.4318377;-3.702143
G144061;Kebabish Coslada;https://glovoapp.com/es/es/madrid/kebabish-coslada-madrid/;82.0;Av. de la Constitución, 80, 28821 Coslada, Madrid, España;40.4176465;-3.5789176
G144074;Los Andenes;https://glovoapp.com/es/es/madrid/los-andenes-madrid/;;Calle de Fernández de los Ríos, 43, 28015 Madrid, España;40.4351301;-3.7104884
G144199;HUMO Goya;https://glovoapp.com/es/es/madrid/humo-goya-madrid/;96.0;C. de Hermosilla, 73, 28001 Madrid, España;40.4261557;-3.6787937
G144422;Doner Kebab;https://glovoapp.com/es/es/madrid/doner-kebab-madrid-murillo/;80.0;Calle de Bravo Murillo, 295, 28020 Madrid, España;40.4611343;-3.6983112
G144542;Llama Wok;https://glovoapp.com/es/es/madrid/llama-wok-mad/;95.0;Camino Viejo de Leganés, 147, 28025 Madrid, España;40.361601;-3.7275577
G144565;Qosqo Restobar;https://glovoapp.com/es/es/madrid/qosqo-restobar-madrid/;77.0;Plaza Andrés Jáuregui, 7, 28043 Madrid, España;40.4633611;-3.6294167
G144632;llaollao;https://glovoapp.com/es/es/madrid/llaollao-la-gavia-madrid/;97.0;Calle de Fuencarral, 43, 28004 Madrid, España;40.4228902;-3.7008216
G144642;Panes Bocadilleria;https://glovoapp.com/es/es/madrid/panes-bocadilleria-madrid/;99.0;Calle de Toledo, 167, 28005 Madrid, España;40.4029563;-3.7132722
G144688;El Raco;https://glovoapp.com/es/es/madrid/el-raco-madrid/;;Calle de Alcalá, 503, 28027 Madrid, España;40.432621;-3.6516638
G144718;La Diavla;https://glovoapp.com/es/es/madrid/la-diavla-madrid/;80.0;Calle de Antonio Acuña, 19, 28009 Madrid, España;40.4215154;-3.6786722
G144777;Donzoko;https://glovoapp.com/es/es/madrid/donzoko-madrid/;100.0;Calle de Echegaray, 3, 28014 Madrid, España;40.4161917;-3.6995933
G144826;Delicioso;https://glovoapp.com/es/es/madrid/delicioso-madrid/;;C. Divino Vallés, 28, 28045 Madrid, España;40.39657175;-3.697858822142864
G144937;Nuo Sushi & Ramen;https://glovoapp.com/es/es/madrid/nuo-sushi-madrid/;94.0;Calle de Embajadores, 141, 28045 Madrid, España;40.39689855;-3.69621133509978
G144953;Chiquiri Fried Chicken;https://glovoapp.com/es/es/madrid/chiquiri-fried-chicken-madrid/;;Calle de Alcalá, 608, 28022 Madrid, Spain;40.4437252;-3.6168669
G145191;Healthy's;https://glovoapp.com/es/es/madrid/healthys-madrid/;;C. de Hilarión Eslava, 64, 28015 Madrid, España;40.4392109;-3.7164943
G145267;El Gato Y La Almendra;https://glovoapp.com/es/es/madrid/el-gato-y-la-almendra-madrid/;92.0;Calle del Oriana, 15, 28045 Madrid, España;40.3968325;-3.6841178
G145479;General Kabab;https://glovoapp.com/es/es/madrid/general-kabab-madrid/;99.0;Calle de San Mariano, 15, 28022 Madrid, España;40.4440812;-3.6132415
G145555;Il Boccone;https://glovoapp.com/es/es/madrid/il-boccone-leganes-getafe/;98.0;Calle de Juan de Mariana, 4, 28045 Madrid, España;40.3989517;-3.6869451
G145701;Barril Seco;https://glovoapp.com/es/es/madrid/barril-seco-madrid/;99.0;Calle de Barrilero, 5, 28007 Madrid, España;40.3975527;-3.6726293772699456
G145741;El Santiamén;https://glovoapp.com/es/es/madrid/el-santiamen-madrid/;100.0;Calle de Fernández de los Ríos, 8, 28015 Madrid, España;40.435002;-3.7050893
G145817;Su Sushi;https://glovoapp.com/es/es/madrid/su-sushi-madrid/;98.0;Calle de Bustamante, 41, 28045 Madrid, España;40.4008175;-3.6939594
G145846;Ramén;https://glovoapp.com/es/es/madrid/ramen-madrid/;66.0;C. del Cañaveral, 64, 28029 Madrid, Spain;40.4689269;-3.6931999
G145859;La Taberna Del Puerto;https://glovoapp.com/es/es/madrid/la-taberna-del-puerto-madrid/;97.0;Calle de Diego de León, 58, 28006 Madrid, España;40.434504;-3.677049
G146004;Market Jmp 24 Horas;https://glovoapp.com/es/es/madrid/market-jmp-24-horas/;100.0;Calle de Hortaleza, 66, 28004 Madrid, España;40.4229502;-3.6990857
G146093;Universo Kebap;https://glovoapp.com/es/es/madrid/universo-kebap-leganes-getafe/;89.0;Calle de Embajadores, 130, 28045 Madrid, España;40.3989813;-3.6983592542824
G146146;Doner Kebab Rico y Caliente;https://glovoapp.com/es/es/madrid/rico-y-caliante-madrid/;87.0;Av. del Dr. Federico Rubio y Galí, 33, 28039 Madrid, España;40.4512347;-3.7095394
G146176;Restaurante Las Rosas III;https://glovoapp.com/es/es/madrid/restaurante-las-rosas-iii-madrid/;85.0;Calle Eje 7, 28053 Madrid, España;40.3640202;-3.6527937
G146180;Kebabish Fried Chicken;https://glovoapp.com/es/es/madrid/kebabish-fried-chicken-madrid/;96.0;Calle de Cuevas de Almanzora, 171, 28033 Madrid, Spain;40.4769499;-3.6577713
G146203;PICCOLINA;https://glovoapp.com/es/es/madrid/ristorante-pizzeria-piccolina-madrid/;99.0;Calle de Santiago de Compostela, 28, 28034 Madrid, España;40.484129;-3.7010285
G146420;Sushi Bar Tottori;https://glovoapp.com/es/es/madrid/sushi-bar-tottori-mad/;45.0;Av. de Machupichu, 31, 28043 Madrid, España;40.4589301;-3.626694298574056
G146435;Batan Doner Kebab;https://glovoapp.com/es/es/madrid/batam-doner-kebab-madrid/;91.0;Calle de Villamanín, 54, 28011 Madrid, España;40.4057675;-3.7536697
G146473;Aluche Döner Kebabish;https://glovoapp.com/es/es/madrid/aluche-doner-kebabish-madrid/;91.0;C. Camarena, 104, 28047 Madrid, España;40.3924558;-3.7571342
G146762;Istanbul Kebab & Chiken Fried;https://glovoapp.com/es/es/madrid/istanbul-kebab-and-chiken-madrid/;90.0;Calle de Diana, 14, 28022 Madrid, España;40.4440812;-3.6132415
G146768;Cervecería Caviar;https://glovoapp.com/es/es/madrid/cerveceria-caviar-madrid/;;Calle Rafael Sánchez Ferlosio, 9, 28830 San Fernando de Henares, Madrid, España;40.4273319;-3.5264724
G146805;Ikedara;https://glovoapp.com/es/es/madrid/ikedara-madrid/;;Calle Caridad, 9, 28007 Madrid, Spain;40.40223185;-3.675556855647014
G146846;Maíz agua & cal;https://glovoapp.com/es/es/madrid/maiz-agua-and-cal-madrid/;100.0;Calle de Apodaca, 3, 28004 Madrid, España;40.4273297;-3.7011539
G147;Tuk Tuk;https://glovoapp.com/es/es/madrid/tuk-tuk/;93.0;Av. del General Perón, 16, 28020 Madrid, España;40.4521519;-3.696945967526842
G147136;Dalú Smash Burger;https://glovoapp.com/es/es/madrid/dalu-smash-burger-mad/;96.0;Calle de Hartzenbusch, 7, 28010 Madrid, Spain;40.4303719;-3.7022037
G147597;O Boteco Brasil;https://glovoapp.com/es/es/madrid/o-boteco-brasil-madrid/;93.0;Av. de Filipinas, 26, 28003 Madrid, España;40.4403971;-3.7088276
G147880;Tacos Chapultepec;https://glovoapp.com/es/es/madrid/tacos-chapultepec-madrid/;83.0;Calle del Cardenal Cisneros, 13, 28010 Madrid, España;40.4318377;-3.702143
G148041;Camperos Malagueños;https://glovoapp.com/es/es/madrid/camperos-malaguenos-madrid/;97.0;Calle de Galileo, 81, 28015 Madrid, España;40.4382982;-3.710096
G148163;Telemandarin;https://glovoapp.com/es/es/madrid/telemandarin-madrid/;91.0;Calle Baleares, 45, 28019 Madrid, España;40.3924711;-3.7129916
G148213;Yamate;https://glovoapp.com/es/es/madrid/yamate-madrid/;97.0;Calle del Padre Jesús Ordóñez, 12, 28002 Madrid, España;40.4411867;-3.6773945
G148252;Asador 7 De Julio;https://glovoapp.com/es/es/madrid/asador-7-de-julio-madrid/;88.0;Av. del Ingeniero Conde de Torroja, 16, 28022 Madrid, España;40.4473082;-3.5595033
G148259;Wacamole;https://glovoapp.com/es/es/madrid/wacamole-madrid/;;Calle de la Aduana, 25, 28013 Madrid, España;40.4184747;-3.7007704
G148262;Alice Pizza;https://glovoapp.com/es/es/madrid/alice-pizza-madrid/;83.0;Calle de Antonio López, 109, 28026 Madrid, España;40.3904892;-3.7015615
G148325;Kebab España;https://glovoapp.com/es/es/madrid/kebab-espana-madrid/;74.0;Calle Pedroches, 14, 28053 Madrid, España;40.3803842;-3.670978
G148332;Uribe Bar Restaurante;https://glovoapp.com/es/es/madrid/uribe-bar-restaurante-madrid/;100.0;Calle de Torquemada, 10, 28043 Madrid, Spain;40.4659509;-3.6394535
G148364;Kebab España;https://glovoapp.com/es/es/madrid/kebab-espana-madrid-es/;95.0;Paseo de Alberto Palacios, 34, 28021 Madrid, España;40.3461825;-3.7105683
G148427;El Comelón;https://glovoapp.com/es/es/madrid/el-comelon-madrid/;78.0;C. del Fuego, 27, 28100 Alcobendas, Madrid, España;40.5476657;-3.6365208
G148428;Pizzas Faraón;https://glovoapp.com/es/es/madrid/pizzas-faraon-madrid/;;Paseo de Alberto Palacios, 34, 28021 Madrid, Spain;40.3461825;-3.7105683
G148433;Pollo Campiña;https://glovoapp.com/es/es/madrid/pollo-campina-madrid/;100.0;Calle Pedroches, 14, 28053 Madrid, Spain;40.3803842;-3.670978
G148447;Ferreiro;https://glovoapp.com/es/es/madrid/ferreiro-madrid/;100.0;Calle del Aviador Zorita, 32, 28020 Madrid, España;40.4499827;-3.6981758
G148765;Restaurante Lima Limón;https://glovoapp.com/es/es/madrid/restaurante-lima-limon-madrid/;91.0;Calle de Pío Baroja, 7, 28009 Madrid, España;40.414109;-3.6739043
G148798;PASTA, PIZZA, MILANESA Y MÁS...;https://glovoapp.com/es/es/madrid/pasta-pizza-milanesa-y-mas-madrid/;100.0;Calle Mirasierra, 35, 28026 Madrid, España;40.3885936;-3.7043734
G148824;American Juanqui Town;https://glovoapp.com/es/es/madrid/american-juanqui-town-madrid/;;Paseo Lanceros, 2, 28024 Madrid, Spain;40.3790165;-3.792758
G148964;Kebab Big Chicken;https://glovoapp.com/es/es/madrid/kebab-big-chicken-madrid/;89.0;Calle Sierra de Cadí, 10, 28018 Madrid, España;40.39270055;-3.660922255507586
G148991;López & López;https://glovoapp.com/es/es/madrid/lopez-and-lopez-leganes/;92.0;Calle de los Cabestreros, 4, 28012 Madrid, España;40.4094457;-3.7042911
G149;Bar Tomate;https://glovoapp.com/es/es/madrid/bar-tomate-madrid/;95.0;Calle Fernando el Santo, 26, 28046 Madrid, Spain;40.428097;-3.6920876
G149032;Mercato Ballaro;https://glovoapp.com/es/es/madrid/mercato-ballaro-madrid/;97.0;Calle de Sta Engracia, 24, 28010 Madrid, España;40.4345526;-3.6985575
G149155;Churreria Dickens Café;https://glovoapp.com/es/es/madrid/churreria-dickens-cafe-madrid/;95.0;Av. de Zarauz, 24, 28830 San Fernando de Henares, Madrid, España;40.4191483;-3.527559560237931
G149202;Chop suey;https://glovoapp.com/es/es/madrid/chop-suey-madrid/;93.0;Calle de Ocaña, 112, 28047 Madrid, España;40.3872757;-3.7519263
G149419;Souzette;https://glovoapp.com/es/es/madrid/souzette-madrid/;100.0;Calle Dr. Michavila, 27, 28821 Coslada, Madrid, España;40.4278704;-3.562244
G149475;Bar Los Asturianos;https://glovoapp.com/es/es/madrid/bar-los-asturianos-madrid/;94.0;Calle Sierra de Cadí, 10, 28018 Madrid, España;40.39270055;-3.660922255507586
G149529;Kebab Mirasierra;https://glovoapp.com/es/es/madrid/kebab-mirasierra-madrid/;91.0;Calle Mirasierra, 35, 28026 Madrid, Spain;40.3885936;-3.7043734
G149530;Rocky Asador;https://glovoapp.com/es/es/madrid/rocky-asador-madrid/;94.0;Calle de Tetuán, 4, 28013 Madrid, España;40.417303;-3.7050885
G149541;Barinka;https://glovoapp.com/es/es/madrid/barinka-madrid/;;Calle de la Bolsa, 4, 28012 Madrid, España;40.4147897;-3.704081
G149825;Sidrería Vasca Zarika;https://glovoapp.com/es/es/madrid/sidreria-vasca-zarika-madrid/;91.0;Calle de Aquitania, 31, 28032 Madrid, España;40.4187249;-3.618146
G149852;Tortuga Pizza Slice;https://glovoapp.com/es/es/madrid/tortuga-pizza-slice-madrid/;74.0;Calle de la Cruz, 20, 28012 Madrid, España;40.4239888;-3.7070442
G149869;Los Chicos Fabrica de Patatas Bravas;https://glovoapp.com/es/es/madrid/los-chicos-fabrica-de-patatas-bravas-madrid/;100.0;Calle de la Fuente del Berro, 35, 28009 Madrid, España;40.4236625;-3.6709161
G149943;Bocadillos Oink;https://glovoapp.com/es/es/madrid/bocadillos-oink-madrid/;98.0;Calle de las Infantas, 22, 28004 Madrid, España;40.420653;-3.6996346
G149967;Freedom Cakes Café;https://glovoapp.com/es/es/madrid/freedom-cakes-cafe-madrid/;94.0;Calle de Cádiz, 7, 28012 Madrid, España;40.4158361;-3.7027941
G149994;Tur-Komida;https://glovoapp.com/es/es/madrid/tur-komida-madrid/;;Calle de Villamanín, 54, 28011 Madrid, Spain;40.4057675;-3.7536697
G150489;El Sabor del Barrio;https://glovoapp.com/es/es/madrid/el-sabor-del-barrio-madrid/;;Calle de Joaquín Turina, 23, 28044 Madrid, España;40.3718256;-3.756148
G150499;Rapi Pizza y Burger;https://glovoapp.com/es/es/madrid/rapi-pizza-y-burger-madrid/;;C. Camarena, 104, 28047 Madrid, España;40.3924558;-3.7571342
G150539;Burmet;https://glovoapp.com/es/es/madrid/burmet-madrid/;96.0;Calle Luis Vives, 9, 28002 Madrid, España;40.4444674;-3.6757436
G150564;Millenium;https://glovoapp.com/es/es/madrid/millenium-madrid/;68.0;Calle de Ponferrada, 49, 28029 Madrid, España;40.476063;-3.7127659
G150621;Sushiwakka Express;https://glovoapp.com/es/es/madrid/sushiwakka-express/;40.0;Calle de Caleruega, 7, 28033 Madrid, España;40.4771278;-3.6692044
G150753;Bar y Kebab;https://glovoapp.com/es/es/madrid/bar-y-kebab-madrid/;72.0;Calle de la Cruz, 13, 28012 Madrid, España;40.4157168;-3.7014788
G151015;Da yuan;https://glovoapp.com/es/es/madrid/da-yuan-madrid/;95.0;Calle de Ezequiel Solana, 52, 28017 Madrid, España;40.4304368;-3.645045291216271
G151075;Restaurante Arturo's El Cañaveral;https://glovoapp.com/es/es/madrid/restaurante-arturos-el-canaveral-madrid/;;Av. Miguel Delibes, 30, 28052 Madrid, España;40.4064825;-3.5633998
G151132;Beytna;https://glovoapp.com/es/es/madrid/beytna-madrid/;96.0;Calle del Moscatelar, 18, 28043 Madrid, España;40.4570015;-3.6484048
G151142;Singapur;https://glovoapp.com/es/es/madrid/singapur-madrid/;95.0;C/ del Mirador de la Reina, 99, 28035 Madrid, España;40.488829;-3.7254329
G15116;Ristorante Maruzzella;https://glovoapp.com/es/es/madrid/ristorante-maruzzella/;98.0;Calle de Raimundo Fernández Villaverde, 28, Madrid, Spain;40.44604875;-3.6995503594813393
G151473;Bocaboca;https://glovoapp.com/es/es/madrid/bocaboca-mad/;100.0;Calle Félix Boix, 8, 28036 Madrid, España;40.4632044;-3.6879227
G151870;The chicken house;https://glovoapp.com/es/es/madrid/the-chicken-house-madrid/;100.0;Av. de Barranquilla, 11, 28033 Madrid, España;40.47471595;-3.6400998247268577
G152102;Sal & Chichen;https://glovoapp.com/es/es/madrid/sal-and-chichen-madrid/;;Calle de Raimundo Fernández Villaverde, 69, 28046 Madrid, España;40.4460617;-3.6909921
G152276;Aquí Galicia;https://glovoapp.com/es/es/madrid/aqui-galicia-madrid/;98.0;Calle de Don Ramón de la Cruz, 109, 28006 Madrid, España;40.4285552;-3.6708602
G152481;Doner Kebab Istanbul;https://glovoapp.com/es/es/madrid/doner-kebab-istanbul-madrid/;;C. de Valencia, 14, 28012 Madrid, España;40.4074775;-3.7004352
G152554;Taberna l'algarabia;https://glovoapp.com/es/es/madrid/taberna-lalgarabia-madrid/;90.0;Calle de Suecia, 41, 28022 Madrid, España;40.4224052;-3.6079453
G152616;Asados 64;https://glovoapp.com/es/es/madrid/asados-64-madrid/;78.0;C. de Juan José Martínez Seco, 64, 28021 Madrid, España;40.3523917;-3.6848613
G153120;Repano Pizza;https://glovoapp.com/es/es/madrid/repano-pizza-madrid/;93.0;C. de Azcona, 11, 28028 Madrid, España;40.4334969;-3.671107
G153129;Restaurante Entre Páginas;https://glovoapp.com/es/es/madrid/restaurante-entre-paginas-madrid/;;Calle del Duque de Sesto, 1, 28009 Madrid, España;40.422289;-3.6720291
G153152;Kebab Argumosa;https://glovoapp.com/es/es/madrid/kebab-argumosa-madrid/;92.0;Calle Zumel, 9, 28037 Madrid, España;40.4284457;-3.626443
G153195;La Cochinita Loca;https://glovoapp.com/es/es/madrid/la-cochinita-loca-madrid/;89.0;C. de Torija, 10, 28013 Madrid, España;40.4208335;-3.7101855
G153216;D'Kebab Food Aluche;https://glovoapp.com/es/es/madrid/dkebab-food-aluche-madrid/;85.0;Av. de los Poblados, 58, 28044 Madrid, España;40.3863802;-3.7643136
G153221;Minelli 1960;https://glovoapp.com/es/es/madrid/minelli-1960-madrid/;94.0;Cl. de Ayala, 140, 28009 Madrid, España;40.4270602;-3.6721896
G153235;Entrecarbón;https://glovoapp.com/es/es/madrid/entrecarbon-madrid/;95.0;Calle de Peña de la Atalaya, 86, 28053 Madrid, España;40.3856432;-3.6675275628774
G153395;Green Marta II;https://glovoapp.com/es/es/madrid/green-marta-ii-madrid/;;Av del Cardenal Herrera Oria, 1, 28034 Madrid, España;40.48090485;-3.720268469147098
G153410;Broker;https://glovoapp.com/es/es/madrid/broker-madrid/;;Av. del General Perón, 40, 28020 Madrid, España;40.4513807;-3.6922905
G153525;El Pollo Loko;https://glovoapp.com/es/es/madrid/elpolloloko-oporto-madrid/;96.0;Av. Oporto, 71, 28019 Madrid, España;40.3864007;-3.7244071
G153574;D'Kebab Food Carabanchel;https://glovoapp.com/es/es/madrid/dkebab-food-madrid/;74.0;Paseo de Marcelino Camacho, 53, 28025 Madrid, España;40.3876446;-3.744616
G153778;El Sultán;https://glovoapp.com/es/es/madrid/el-sultan-madrid/;90.0;Paseo de Marcelino Camacho, 53, 28025 Madrid, España;40.3876446;-3.744616
G153821;Friend Fries;https://glovoapp.com/es/es/madrid/friend-fries-madrid/;;Paseo de la Florida, 21, 28008 Madrid, España;40.42179635;-3.722318508087284
G153941;Mariacastaña;https://glovoapp.com/es/es/madrid/mariacastana-madrid/;90.0;Cl. de los Yébenes, 150, 28047 Madrid, España;40.3900827;-3.751807
G153973;Livanda Bakery;https://glovoapp.com/es/es/madrid/livanda-bakery-madrid/;90.0;Calle de Hermosilla, 84, 28001 Madrid, España;40.4258957;-3.6764636
G153989;Sushi Star;https://glovoapp.com/es/es/madrid/sushi-star-madrid/;98.0;C/ de Fernán González, 21, 28009 Madrid, España;40.4229309;-3.6741945
G154211;Pintxoterapia;https://glovoapp.com/es/es/madrid/pintxoterapia-tres-cantos-colmenar/;87.0;Av. de Barranquilla, 17, 28033 Madrid, España;40.4753964;-3.6395463
G154313;Restaurante Vietnam Mekong;https://glovoapp.com/es/es/madrid/restaurante-vietnam-mekong-madrid/;96.0;C. de Atocha, 94, 28012 Madrid, España;40.4107057;-3.6961425
G154320;Volea;https://glovoapp.com/es/es/madrid/volea-madrid/;;Calle La Pedriza, 6, 28224 Pozuelo de Alarcón, Madrid, España;40.460772;-3.8034293
G15439;Trattoria Pulcinella;https://glovoapp.com/es/es/madrid/trattoria-pulcinella/;96.0;Calle de Regueros, 7, Madrid, Spain;40.4246294;-3.6965193
G154448;Casa Osaka I;https://glovoapp.com/es/es/madrid/casa-osaka-i-madrid/;84.0;Paseo Marqués de Zafra, 24, 28028 Madrid, España;40.42613555;-3.664693736358944
G154479;Perla Del Sabor;https://glovoapp.com/es/es/madrid/perla-del-sabor-madrid/;;Calle Francisco Medrano, 3, 28020 Madrid, España;40.458984;-3.69952571387824
G154716;Fornería Ballaro;https://glovoapp.com/es/es/madrid/forneria-ballaro-madrid/;89.0;Calle de Sta Engracia, 90, 28010 Madrid, España;40.437811;-3.6998016
G1548;Estilo Sushi;https://glovoapp.com/es/es/madrid/estilo-sushi/;97.0;Calle Cidamón, 2, Madrid, Spain;40.45073015;-3.657786330615763
G154815;Open 25;https://glovoapp.com/es/es/madrid/open-25-madrid/;98.0;Calle de Marcelo Usera, 2, 28026 Madrid, España;40.3882315;-3.699936495809248
G154823;Bocatas Y Más;https://glovoapp.com/es/es/madrid/bocatas-y-mas-madrid/;97.0;Av. de Manoteras, 22, 28050 Madrid, España;40.487449;-3.6679579
G154839;Chocolatería Valor;https://glovoapp.com/es/es/madrid/chocolateria-valor-madrid/;91.0;Calle del Conde de Peñalver, 43, 28006 Madrid, España;40.429129;-3.6756022
G154845;Bar La Estación De Guernica;https://glovoapp.com/es/es/madrid/bar-la-estacion-de-guernica-madrid/;100.0;Calle de Vitoria, 3, 28830 San Fernando de Henares, Madrid, España;40.4219682;-3.5256368930781834
G154847;La Mansión Del Chowfan;https://glovoapp.com/es/es/madrid/la-mansion-del-chowfan-madrid/;98.0;Calle de la Sierra de Palomeras, 3, 28031 Madrid, España;40.3781815;-3.623387086212155
G155070;Tropicalista;https://glovoapp.com/es/es/madrid/tropicalista-madrid/;97.0;Calle de la Ballesta, 2, 28004 Madrid, Spain;40.4211658;-3.7035588
G155087;La Figal De Pablo;https://glovoapp.com/es/es/madrid/la-figal-de-pablo-madrid/;95.0;Av. de Tenerife, 19, 28702 San Sebastián de los Reyes, Madrid, España;40.5614296;-3.6199174
G155107;Cokima;https://glovoapp.com/es/es/madrid/cokima-madrid/;77.0;C. de Andrés Mellado, 21, 28015 Madrid, España;40.4325758;-3.7146065
G155149;Pizzeria D'oro;https://glovoapp.com/es/es/madrid/pizzeria-doro-madrid/;85.0;Calle de Ávila, 31, 28020 Madrid, Spain;40.4525986;-3.6994965
G155250;Panarte;https://glovoapp.com/es/es/madrid/panarte-madrid/;91.0;Paseo Marqués de Zafra, 2, 28028 Madrid, España;40.42613555;-3.664693736358944
G155276;Vinoteca Extremeña;https://glovoapp.com/es/es/madrid/vinoteca-extremena-madrid/;;Calle de Fernández de los Ríos, 40, 28015 Madrid, España;40.4351782;-3.7084527
G155314;Burrito Bravo;https://glovoapp.com/es/es/madrid/burrito-bravo-madrid/;76.0;Calle de Mira el Sol, 23, 28005 Madrid, España;40.4070146;-3.7072659
G155324;ii Sushi;https://glovoapp.com/es/es/madrid/ii-sushi/;;Calle del Conde Duque, 10, 28015 Madrid, España;40.4261217;-3.7112841
G155645;Taishan;https://glovoapp.com/es/es/madrid/taishan-madrid/;83.0;Calle de Juan de Olías, 9, 28020 Madrid, Spain;40.4534788;-3.7021842
G155838;Bibimbap;https://glovoapp.com/es/es/madrid/bibimbap-madrid/;;Calle de Fernández de los Ríos, 40, 28015 Madrid, España;40.4351782;-3.7084527
G155935;Chill Costillas;https://glovoapp.com/es/es/madrid/chill-costillas-mad/;78.0;Calle Nieremberg, 24, 28002 Madrid, España;40.4486213;-3.6728269
G155939;Casa Tía María;https://glovoapp.com/es/es/madrid/casa-tia-maria-madrid/;;Calle de Goya, 54, 28001 Madrid, España;40.4250014;-3.680116
G156080;Terramundi;https://glovoapp.com/es/es/madrid/terramundi-madrid/;95.0;Calle de Lope de Vega, 32, 28014 Madrid, España;40.4136237;-3.6960696
G156448;Breakfast & Snack Wrapipans;https://glovoapp.com/es/es/madrid/breakfast-and-snack-wrapipans-madrid/;80.0;C. de Atocha, 116, 28012 Madrid, España;40.4093943;-3.6931759
G156672;Rösq;https://glovoapp.com/es/es/madrid/rosq-madrid/;76.0;Calle Luis Sánchez Polack Tip, 6, 28037 Madrid, España;40.4358901;-3.6242481
G156676;Izmir Kebabistro Halal;https://glovoapp.com/es/es/madrid/izmir-kebabistro-halal-madrid/;90.0;Calle de Francisco Silvela, 11, 28028 Madrid, España;40.4294495;-3.6702333
G156798;Takomama;https://glovoapp.com/es/es/madrid/takomama-madrid/;73.0;Calle de Hortaleza, 21, 28004 Madrid, España;40.4216732;-3.7001576
G156841;La Pizzeria Madrid;https://glovoapp.com/es/es/madrid/la-pizzeria-madrid/;91.0;Calle del Barquillo, 20, 28004 Madrid, España;40.4217994;-3.695611
G156856;Arepería;https://glovoapp.com/es/es/madrid/areperia-madrid/;70.0;Calle de Luchana, 7, 28010 Madrid, España;40.4296277;-3.701468
G157113;Gastrobar 1968 Era Madrid;https://glovoapp.com/es/es/madrid/gastrobar-1968-era-madrid-madrid/;;Calle de Almansa, 91, 28040 Madrid, España;40.4492951;-3.7122346
G157216;La Monumental;https://glovoapp.com/es/es/madrid/la-monumental-madrid/;90.0;Calle Caridad, 2, 28007 Madrid, España;40.4018328;-3.6756521
G157232;Tasty Bowl;https://glovoapp.com/es/es/madrid/tasty-bow-madrid/;88.0;Calle de Arganzuela, 25, 28005 Madrid, España;40.4081561;-3.7098711
G157234;Noname Bar;https://glovoapp.com/es/es/madrid/noname-bar-rest/;98.0;Calle de Claudio Coello, 27, 28001 Madrid, España;40.4237193;-3.6869264
G157279;Nong Jia Yi Wan Xiang;https://glovoapp.com/es/es/madrid/nong-jia-yi-wan-xiang-madrid/;93.0;Calle de Antonio Salvador, 57, 28026 Madrid, España;40.3869145;-3.6995001
G157296;Canela;https://glovoapp.com/es/es/madrid/canela-madrid/;76.0;Paseo de la Florida, 21, 28008 Madrid, España;40.42179635;-3.722318508087284
G1576;Che Pibita;https://glovoapp.com/es/es/madrid/che-pibita-2/;;Calle de Modesto Lafuente, 64, 28003 Madrid, España;40.4439585;-3.6957384
G1577;Fulitu;https://glovoapp.com/es/es/madrid/fulitu-madrid/;90.0;Calle de Caleruega, 7, 28033 Madrid, Spain;40.4771278;-3.6692044
G157762;Pizzamascalzone;https://glovoapp.com/es/es/madrid/pizzamascalzone-madrid/;97.0;Calle de Cervantes, 1, 28014 Madrid, España;40.414889;-3.6945481
G157772;Antep Kebap II;https://glovoapp.com/es/es/madrid/antep-kebap-ii-madrid/;99.0;C. de Aínsa, 30, 28022 Madrid, España;40.4323633;-3.610692
G157796;Sidrería Asgaya;https://glovoapp.com/es/es/madrid/sidreria-asgaya-madrid/;92.0;Av. de los Rosales, 16, 28041 Madrid, Spain;40.3673083;-3.691328
G158;Massart Pizza;https://glovoapp.com/es/es/madrid/massart/;94.0;Calle de Isaac Peral, 2, 28015 Madrid, España;40.4348713;-3.7182368
G15800;Lemongrass;https://glovoapp.com/es/es/madrid/lemongrass-3/;92.0;Calle de la Montera, 36, Madrid, Spain;40.4191506;-3.7018559
G158026;Ma-Mi Contigo Take Away;https://glovoapp.com/es/es/madrid/picoteos-ma-mi-madrid/;91.0;Calle del Pinar del Rey, 12, 28033 Madrid, España;40.4699981;-3.6532223
G15806;La Pagoda;https://glovoapp.com/es/es/madrid/la-pagoda/;96.0;Calle Félix Boix, 7, 28036 Madrid, España;40.463429;-3.6874319
G15821;Lamian;https://glovoapp.com/es/es/madrid/lamian-madrid/;91.0;Plaza Mostenses, 4, Madrid, Spain;40.42352145;-3.708837932608691
G158425;Taj;https://glovoapp.com/es/es/madrid/taj-madrid/;91.0;Calle del Marqués de Cubas, 6, 28014 Madrid, España;40.4172562;-3.6956993
G158575;Sana Vegetariana;https://glovoapp.com/es/es/madrid/sana-vegetariana-madrid/;91.0;Paseo de Extremadura, 4, 28011 Madrid, España;40.4091005;-3.7416598
G158605;Burger Emilios;https://glovoapp.com/es/es/madrid/burger-emilios-madrid/;100.0;Calle de los Montes de Toledo, 1, 28031 Madrid, España;40.378776;-3.6209461
G158718;Restaurante Chino Nuevo Pekín;https://glovoapp.com/es/es/madrid/restaurante-chino-nuevo-pekin-madrid/;94.0;C. Camarena, 164, 28047 Madrid, España;40.3899033;-3.7569969
G158919;Lolos Burger Hermosilla;https://glovoapp.com/es/es/madrid/lolos-burger-hermosilla-madrid/;100.0;Calle de Hermosilla, 157, 28028 Madrid, España;40.42555215;-3.6664202242830415
G159035;Menu by Istanbul Kebab Luchana;https://glovoapp.com/es/es/madrid/menu-by-istanbul-kebab-luchana-mad/;90.0;Calle de Luchana, 10, Madrid, Spain;40.4297314;-3.7007896
G159147;Doner kebab lavapies;https://glovoapp.com/es/es/madrid/doner-kebab-lavapies-madrid/;;Plaza Lavapiés, 28012 Madrid, España;40.4108009;-3.7076291
G159471;Salma Doner Kebab;https://glovoapp.com/es/es/madrid/salma-doner-kebab-madrid/;89.0;Calle de Parvillas Altas, 4, 28021 Madrid, Spain;40.3448599;-3.7081353
G159575;Bellísima Pizza;https://glovoapp.com/es/es/madrid/bellisima-pizza-madrid/;80.0;Paseo de Santa María de la Cabeza, 39, 28045 Madrid, España;40.4031023;-3.69709
G159577;La Esquina Criolla;https://glovoapp.com/es/es/madrid/la-esquina-criolla-madrid/;96.0;Calle Fulgencio de Miguel, 7, 28039 Madrid, España;40.4551183;-3.7037362
G159635;"La Tasquería ""HomeMade""";https://glovoapp.com/es/es/madrid/la-tasqueria-homemade-madrid/;85.0;Calle del Duque de Sesto, 48, 28009 Madrid, España;40.4222271;-3.6735107
G160006;Yellow Cab;https://glovoapp.com/es/es/madrid/yellow-cab-madrid/;98.0;Av. Olímpica, 5, 28108 Alcobendas, Madrid, España;40.5351984;-3.638705
G160290;Kebab Antalia;https://glovoapp.com/es/es/madrid/kebab-antalia-madrid/;98.0;Calle de Luisa Fernanda, 10, 28008 Madrid, España;40.4259357;-3.714876
G1604;Istanbul Doner Kebab;https://glovoapp.com/es/es/madrid/istanbul-doner-kebap/;97.0;Calle de Luchana, 10, Madrid, Spain;40.4297314;-3.7007896
G160464;AMOREMATICO - CASCORRO;https://glovoapp.com/es/es/madrid/amorematico-cascorro-madrid/;83.0;Pl. de Cascorro, 16, 28005 Madrid, España;40.4102527;-3.7074576
G160500;La Palenquera;https://glovoapp.com/es/es/madrid/la-palenquera-madrid/;85.0;Calle Zarzuela, 30, 28044 Madrid, España;40.3709134;-3.7483419
G160508;Itazura Sushi;https://glovoapp.com/es/es/madrid/itazura-sushi-madrid/;90.0;Calle de la Isla de Oza, 41, 28035 Madrid, España;40.4640641;-3.7223888
G160703;Mas Que Pintxos;https://glovoapp.com/es/es/madrid/mas-que-pintxos-panama-madrid/;96.0;Calle Panamá, 3, 28036 Madrid, España;40.43987775;-3.651095967070231
G160835;Asador Navarro;https://glovoapp.com/es/es/madrid/asador-navarro-madrid/;99.0;Calle de Fermín Caballero, 7, 28034 Madrid, España;40.4867274;-3.6997685
G160836;Kebab La Estación;https://glovoapp.com/es/es/madrid/kebab-la-estacion-madrid/;68.0;Calle Alberto Palacios, 31, 28021 Madrid, España;40.3437158;-3.7125718
G160925;Restaurante Peruano Imperio Latino;https://glovoapp.com/es/es/madrid/restaurante-peruano-imperio-latino-madrid/;88.0;C. de los Artistas, 57, 28020 Madrid, España;40.4474135;-3.6991488
G161149;Gonzalez & Co Veggie & Vegan;https://glovoapp.com/es/es/madrid/gonzalez-and-co-store-madrid-veggie/;100.0;P.º de los Melancólicos, 7, 28005 Madrid, España;40.4018522;-3.719006980493308
G161251;Rio Grande Café Villaverde;https://glovoapp.com/es/es/madrid/rio-grande-cafe-atocha-madrid/;;Paseo de Santa María de la Cabeza, 16, 28045 Madrid, España;40.4060838;-3.6949468
G161257;Nugu Rolls;https://glovoapp.com/es/es/madrid/la-roja-4-delivery-madrid/;94.0;Calle Sorgo, 53, 28029 Madrid, España;40.469272;-3.7056388
G161272;Zumomix;https://glovoapp.com/es/es/madrid/zumomix-madrid/;;Cl. de la Sierra Vieja, 48, 28031 Madrid, España;40.3774983;-3.6255252
G161295;El Turkito Centro;https://glovoapp.com/es/es/madrid/el-turquito-centro-madrid/;87.0;Calle del Dr Cortezo, 7, 28012 Madrid, España;40.4132391;-3.7037428
G161348;Burger Swing;https://glovoapp.com/es/es/madrid/burger-swing-madrid/;98.0;C. de Sanchonuno, 15, 28034 Madrid, España;40.4922;-3.6894458
G161649;330 Grados Pizza;https://glovoapp.com/es/es/madrid/330-grados-pizza-madrid/;96.0;Calle Berenisa, 23, 28023 Madrid, España;40.4580249;-3.781261
G161698;Red Project Sushi;https://glovoapp.com/es/es/madrid/red-proyect-sushi-madrid/;98.0;C/ de Villalar, 7, 28001 Madrid, España;40.42129075;-3.690186711607134
G161755;Euro Bangla Kebab;https://glovoapp.com/es/es/madrid/euro-bangla-kebab-madrid/;85.0;Calle Diego Manchado, 60, 28018 Madrid, España;40.389597;-3.6469595
G161768;El Torito;https://glovoapp.com/es/es/madrid/el-torito-madrid/;100.0;Calle de Rodríguez San Pedro, 64, 28015 Madrid, España;40.4315404;-3.7076843
G161983;Pa Vé Jhon;https://glovoapp.com/es/es/madrid/pa-ve-jhon-mad/;100.0;Av. del Chaparral, 11, 28701 San Sebastián de los Reyes, Madrid, España;40.5492182;-3.6302194
G162129;Pizza Delizia;https://glovoapp.com/es/es/madrid/pizza-delizia-madrid/;98.0;Calle del Mar Caspio, 19, 28033 Madrid, España;40.4738324;-3.6461314
G162139;London Grill Madrid;https://glovoapp.com/es/es/madrid/london-grill-madrid-madrid/;94.0;Calle de Alcalá, 238, 28027 Madrid, España;40.431779;-3.6569426
G162304;Palmitas Café;https://glovoapp.com/es/es/madrid/palmitas-cafe-madrid/;75.0;Calle de Serrano, 61, 28006 Madrid, España;40.4322056;-3.6869707
G162480;Mesón Grill;https://glovoapp.com/es/es/madrid/el-meson-de-la-parrilla-al-carbon-madrid/;86.0;Calle Río Salado, 3, 28018 Madrid, España;40.385922;-3.6509893
G162855;Pizzería Arezzo;https://glovoapp.com/es/es/madrid/pizzeria-arezzo-madrid/;100.0;Calle de Cobos de Segovia, 28005 Madrid, España;40.4060379;-3.7191486
G162886;Doner Kebab Kebabish;https://glovoapp.com/es/es/madrid/doner-kebab-kebabish-madrid/;94.0;Paseo de Extremadura, 158, 28011 Madrid, España;40.4091005;-3.7416598
G1629;Oam Thong;https://glovoapp.com/es/es/madrid/oam-thong/;98.0;Calle Navarrete, 9, 28050 Madrid, España;40.4998591;-3.6728534
G162955;800 Burgers;https://glovoapp.com/es/es/madrid/800-burgers-mad/;95.0;C. Chantada, 16, 28029 Madrid, España;40.47298165;-3.710889158918099
G163202;Homer Burger;https://glovoapp.com/es/es/madrid/homer-burger-madrid/;;Calle Ramón Calabuig, 9, 28053 Madrid, España;40.39494415;-3.670709735987713
G163215;Maracca & Asccuas;https://glovoapp.com/es/es/madrid/maracca-y-asccuas-madrid/;92.0;Calle de Sta Engracia, 112, 28003 Madrid, España;40.4395809;-3.7005228
G163239;Hut Kebab;https://glovoapp.com/es/es/madrid/hut-kebab-madrid/;;Av. de la Peseta, 31, 28054 Madrid, España;40.3642949;-3.7624477
G163306;Milanesa House;https://glovoapp.com/es/es/madrid/milanesa-house-madrid/;;Calle de Larra, 23, 28004 Madrid, España;40.4284231;-3.7005414
G163590;Rio Grande Café Atocha;https://glovoapp.com/es/es/madrid/rio-grande-cafe-atocha-madrid1/;93.0;Paseo de Santa María de la Cabeza, 16, 28045 Madrid, España;40.4060838;-3.6949468
G163757;Cafetería Estilo;https://glovoapp.com/es/es/madrid/estilo-madrid/;98.0;Calle de Azcona, 32, 28028 Madrid, España;40.4339529;-3.669858
G164755;Pica Y Come;https://glovoapp.com/es/es/madrid/pica-y-come-madrid/;96.0;Calle Olvido, 86, 28026 Madrid, España;40.3841874;-3.7024343
G164762;Tacos La Chingada;https://glovoapp.com/es/es/madrid/tacos-la-chingada-goya-madrid/;;C. Idioma Esperanto, 2, 28017 Madrid, España;40.41929545;-3.626677300943512
G164982;Kebab Cañada;https://glovoapp.com/es/es/madrid/kebab-canada-madrid/;93.0;Av. de la Cañada, 77, 28823 Coslada, Madrid, España;40.4373421;-3.5412655
G165241;Tekila's Tex-Mex;https://glovoapp.com/es/es/madrid/tekilas-tex-mex-madrid/;96.0;Calle Ana María, 30, 28039 Madrid, Spain;40.4636838;-3.7018336
G165328;500 Crust Pizza;https://glovoapp.com/es/es/madrid/500-crus-pizza/;59.0;C. de Puerto Serrano, 14, 28045 Madrid, Spain;40.3857051;-3.6874803
G165383;El Parque;https://glovoapp.com/es/es/madrid/el-parque-madrid1/;93.0;C. de Fernando el Católico, 78., 28015 Madrid, España;40.4345015;-3.7160093
G1654;Mizuki;https://glovoapp.com/es/es/madrid/mizuki/;95.0;Calle De Ercilla, 11, Madrid, Spain;40.403198;-3.7030299
G165421;Avocado Love;https://glovoapp.com/es/es/madrid/avocado-love-madrid/;;Calle del Espíritu Santo, 15, 28004 Madrid, España;40.4252874;-3.7034954
G165720;China Town;https://glovoapp.com/es/es/madrid/china-town-madrid/;82.0;Calle de Trafalgar, 4, 28821 Coslada, Madrid, España;40.4242505;-3.5642082
G165793;Golden Chopsticks;https://glovoapp.com/es/es/madrid/golden-chopsticks-madrid/;96.0;Calle María Moliner, 10, 28702 San Sebastián de los Reyes, Madrid, España;40.5609263;-3.6129926
G166166;Ramen Kagura Barrio del Pilar;https://glovoapp.com/es/es/madrid/ramen-kagura-barrio-del-pilar/;99.0;Calle de Antonio López Aguado, 10, 28029 Madrid, España;40.4824048;-3.7011992
G166419;Armando;https://glovoapp.com/es/es/madrid/escalope-armando-mad/;97.0;Calle de Nicasio Gallego, 14, 28010 Madrid, España;40.429438;-3.6985584
G166648;Josepan;https://glovoapp.com/es/es/madrid/josepan-vaguada-madrid/;93.0;Av. de Monforte de Lemos, 123, 28029 Madrid, España;40.4779482;-3.7100884
G16694;Cantina Canalla;https://glovoapp.com/es/es/madrid/cantina-canalla/;92.0;Calle de la Antracita, 10, Madrid, Spain;40.3926206;-3.687037
G167021;Angura Khatun;https://glovoapp.com/es/es/madrid/grupo-doner-kebab/;94.0;Calle Ginzo de Limia, 31, 28029 Madrid, España;40.4780694;-3.704251967843928
G167751;La Esquina Peruana;https://glovoapp.com/es/es/madrid/la-esquina-peruana-madrid/;88.0;Calle de Manzanares, 2A, 28005 Madrid, España;40.4131126;-3.7174836
G168173;Trattoria Forchetta;https://glovoapp.com/es/es/madrid/trattoria-forchetta-madrid/;91.0;Calle de Bravo Murillo, 365, 28020 Madrid, España;40.4654626;-3.692459
G168274;Mandrake Greek Street Food;https://glovoapp.com/es/es/madrid/mandrake-greek-street-food-madrid/;97.0;Calle de Jordán, 12, 28010 Madrid, España;40.4328699;-3.7028261
G168285;Restaurante Chino Diamante;https://glovoapp.com/es/es/madrid/restaurante-chino-diamante-madrid/;91.0;Calle de Méjico, 20, 28028 Madrid, España;40.4370247;-3.6733341
G169753;Cañas y Tapas;https://glovoapp.com/es/es/madrid/canas-y-tapas-madrid/;;Pl. del Comercio, 11-12, 28703 San Sebastián de los Reyes, Madrid, España;40.5441619;-3.6116276
G169775;K.A Restaurante;https://glovoapp.com/es/es/madrid/ka-restaurante-madrid/;96.0;Calle de Grafal, 2, 28005 Madrid, España;40.4133997;-3.7079469
G169813;Restaurante Chino Fulihua;https://glovoapp.com/es/es/madrid/restaurante-chino-fulihua-madrid/;93.0;Bulevar de José Prat, 12, 28032 Madrid, España;40.3975268;-3.6242075
G170006;Om tandoori;https://glovoapp.com/es/es/madrid/om-tandoori-madrid/;96.0;Calle del Corazón de María, 32, 28002 Madrid, España;40.4417353;-3.6689309
G170071;Cafetería Charly;https://glovoapp.com/es/es/madrid/cafeteria-charly-madrid/;100.0;Calle Campiña, 2, 28053 Madrid, España;40.3796388;-3.6711772326009218
G170123;Maria Croquetas;https://glovoapp.com/es/es/madrid/maria-croquetas-madrid/;74.0;Calle de Fernando el Santo, 11, 28010 Madrid, España;40.428237;-3.6930478
G170454;Empanadas Tita De Buenos Aires;https://glovoapp.com/es/es/madrid/tita-de-buenos-aires-madrid/;100.0;Calle de Zurbano, 69, 28010 Madrid, España;40.4328678;-3.693329
G170500;Steak Grill House;https://glovoapp.com/es/es/madrid/steak-grill-house-madrid/;;C. de Atocha, 117, 28012 Madrid, España;40.4101941;-3.6943438
G170795;Red Project Poke Y Donburi;https://glovoapp.com/es/es/madrid/red-project-poke-y-donburi-madrid/;100.0;C/ de Villalar, 7, 28001 Madrid, España;40.42129075;-3.690186711607134
G170905;La Celadilla;https://glovoapp.com/es/es/madrid/la-celadilla-madrid/;86.0;Calle de Dulcinea, 39, 28020 Madrid, España;40.1631528;-3.6177548
G1711;Mandarin Express;https://glovoapp.com/es/es/madrid/mandarin-express/;96.0;Calle de Jaén, 23, 28020 Madrid, España;40.4503852;-3.7007188
G17113;El Escondite de Villanueva;https://glovoapp.com/es/es/madrid/el-escondite-de-villanueva-madrid/;100.0;Calle de Villanueva, 26, Madrid, Spain;40.422341;-3.6860497
G17116;Pantin Grill;https://glovoapp.com/es/es/madrid/pantin-grill/;92.0;C. de Zabaleta, 1, 28002 Madrid, España;40.4409254;-3.6753469
G17125;La Panza es Primero;https://glovoapp.com/es/es/madrid/la-panza-es-primero/;;Calle de la Palma, 6, Madrid, Spain;40.4261695;-3.7020126
G171507;Gyros Gourmet;https://glovoapp.com/es/es/madrid/gyros-gourmet-madrid/;86.0;Calle de Blasco de Garay, 21, 28015 Madrid, España;40.4362414;-3.7113374
G172086;Los Majes;https://glovoapp.com/es/es/madrid/los-majes-madrid/;94.0;Paseo Imperial, 50, 28005 Madrid, España;40.4029188;-3.7154143
G172537;Los Ángeles Restaurante Bar;https://glovoapp.com/es/es/madrid/los-angeles-restaurante-bar-madrid/;97.0;Av. de la Verbena de la Paloma, 11, 28041 Madrid, España;40.3593962;-3.6959366136218734
G173489;Bar El Castaño;https://glovoapp.com/es/es/madrid/bar-el-castano-madrid/;100.0;Av. del Marqués de Corbera, 40, 28017 Madrid, España;40.4251124;-3.6524085
G173539;STEAK LOVERS RESTAURANTE;https://glovoapp.com/es/es/madrid/sreak-lovers-restaurante-madrid/;;Calle Laponia, 5A, 28030 Madrid, España;40.40525785;-3.627411101658162
G1739;Perrachica;https://glovoapp.com/es/es/madrid/perrachica/;94.0;Calle Eloy Gonzalo, 10, Madrid, Spain;40.4337576;-3.7029074
G173901;Sushimore;https://glovoapp.com/es/es/madrid/sushimore-atocha-madrid/;;Paseo de Santa María de la Cabeza, 32, 28045 Madrid, España;40.4046153;-3.6962007
G173936;Vira Vira;https://glovoapp.com/es/es/madrid/vira-vira-madrid/;93.0;Calle de Don Felipe, 2, 28004 Madrid, España;40.4244763;-3.7025097
G174;Picsa;https://glovoapp.com/es/es/madrid/picsa-madrid/;98.0;Calle de Ponzano, 76, Madrid, España;40.4376642;-3.699407
G174252;Restaurante Asiático Fang;https://glovoapp.com/es/es/madrid/restaurante-asiatico-fang-madrid/;96.0;Calle de Embajadores, 186, 28045 Madrid, España;40.3931425;-3.6942438
G174265;Cervecería Burgos Montijo;https://glovoapp.com/es/es/madrid/cerveceria-burgos-montijo-madrid/;100.0;Calle de Eugenia de Montijo, 80, 28025 Madrid, España;40.378667;-3.7478623
G174385;Sonargoan Kebab;https://glovoapp.com/es/es/madrid/sonargoan-kebab-madrid/;94.0;Calle Esperanza Macarena, 8, 28021 Madrid, España;40.3501351;-3.6904514
G174892;Si Nos Dejan;https://glovoapp.com/es/es/madrid/si-nos-dejan-madrid/;74.0;C. Atenas, 2, 28224 Pozuelo de Alarcón, Madrid, España;40.4346245;-3.7984014
G174894;Pizza Pasta Express;https://glovoapp.com/es/es/madrid/pizza-pasta-express-madrid/;80.0;C. Escoriaza, 3, 28041 Madrid, España;40.35127115;-3.6952953263683432
G174900;Shanghai Station;https://glovoapp.com/es/es/madrid/shanghai-station-madrid/;93.0;C. de Arturo Soria, 51, 28027 Madrid, España;40.4437837;-3.644074650000003
G174905;Sicilia in Bocca;https://glovoapp.com/es/es/madrid/sicilia-in-bocca-madrid/;86.0;C. Escoriaza, 3, 28041 Madrid, España;40.35127115;-3.6952953263683432
G174959;Abrazzas;https://glovoapp.com/es/es/madrid/abrazzas-madrid/;98.0;Calle de la Oca, 26, 28025 Madrid, España;40.3896456;-3.7340386
G174961;Pura Italia;https://glovoapp.com/es/es/madrid/pura-italia-madrid/;70.0;C. Escoriaza, 3, 28041 Madrid, España;40.35127115;-3.6952953263683432
G175284;Viena Sándwiches;https://glovoapp.com/es/es/madrid/viena-sandwiches-madrid/;96.0;Calle de Bordadores, 9, 28013 Madrid, España;40.4169151;-3.7074425
G175359;Restaurante Aragón;https://glovoapp.com/es/es/madrid/restaurante-aragon-madrid/;91.0;Av. de Aragón, 368, 28022 Madrid, España;40.4497397;-3.5801755
G1756;El Tío Taco;https://glovoapp.com/es/es/madrid/el-tio-taco/;98.0;Calle Azucenas, 53, 28039 Madrid, España;40.4640465;-3.7010299
G1757;Take & Taste;https://glovoapp.com/es/es/madrid/take-and-taste-madrid/;68.0;C. Vía de los Poblados, 3, 28033 Madrid, España;40.4760816;-3.6348979
G175946;Ali Kebabish;https://glovoapp.com/es/es/madrid/ali-kebabish-madrid/;96.0;C. Camarena, 326, 28047 Madrid, España;40.385326;-3.7585693
G175959;Pandasushi;https://glovoapp.com/es/es/madrid/pandasushi-madrid/;93.0;Av. Pablo Neruda, 108, 28018 Madrid, España;40.3884385;-3.6439266
G175978;Pancho Fierro;https://glovoapp.com/es/es/madrid/pancho-fierro-madrid/;91.0;Calle de Fermín Caballero, 6, 28034 Madrid, España;40.4874982;-3.6996504
G176330;Roza Kebab;https://glovoapp.com/es/es/madrid/roza-kebab-madrid/;72.0;Calle Antonio Prieto, 69, 28026 Madrid, España;40.3805382;-3.713873
G176373;Filippo Pizza;https://glovoapp.com/es/es/madrid/figaro-pizza-madrid/;95.0;Calle de Diego de León, 15, 28006 Madrid, España;40.4351115;-3.6838155
G176378;Masala Cocina India;https://glovoapp.com/es/es/madrid/masala-cocina-india-madrid/;88.0;Calle Real, 84, 28701 San Sebastián de los Reyes, Madrid, España;40.544269;-3.6286919
G176823;La Vega;https://glovoapp.com/es/es/madrid/la-vega-madrid/;;Calle de la del Manojo de Rosas, 64, 28041 Madrid, Spain;40.3612102;-3.6965117
G177121;Yeggie Mediterranean;https://glovoapp.com/es/es/madrid/yeggie-mediterranean-madrid/;100.0;Calle San Leopoldo, 8, 28029 Madrid, España;40.4693677;-3.6901828
G177140;Cass Burger;https://glovoapp.com/es/es/madrid/cass-burger-madrid/;100.0;Calle de Toledo, 167, 28005 Madrid, España;40.3045594;-3.7323443
G177220;Restaurante La Reina Del Quinche;https://glovoapp.com/es/es/madrid/restaurante-la-reina-del-quinche-madrid/;94.0;Calle de San Felipe, 4, 28020 Madrid, España;40.4615576;-3.6971013
G177228;Bar La Parada;https://glovoapp.com/es/es/madrid/bar-la-parada-madrid/;96.0;Calle Vía Carpetana, 81, 28047 Madrid, España;40.4021873;-3.7300808
G177258;Zenith;https://glovoapp.com/es/es/madrid/zenith-madrid/;93.0;Av. de Europa, 26, 28224 Pozuelo de Alarcón, Madrid, España;40.441325;-3.784078381660198
G177264;Bar Jolin Doner Kebab;https://glovoapp.com/es/es/madrid/bar-jolin-doner-kebab-madrid/;91.0;Calle Vía Carpetana, 109, 28047 Madrid, España;40.39407235;-3.73918468788222
G177301;ARAHY;https://glovoapp.com/es/es/madrid/arahyrte/;100.0;Calle de Alcalá, 58, 28014 Madrid, España;40.4196657;-3.6897268
G177643;Pizza Ñam;https://glovoapp.com/es/es/madrid/pizza-nam/;91.0;Calle Arechavaleta, 6, 28041 Madrid, España;40.3509228;-3.6962023
G178584;Sushi&Mas;https://glovoapp.com/es/es/madrid/sushiandmas-madrid/;96.0;C. Labajos, 4, 28034 Madrid, España;40.4918456;-3.6884319
G179198;Cocina India;https://glovoapp.com/es/es/madrid/cocina-india-madrid/;77.0;Av. de España, 17, 28100 Alcobendas, Madrid, España;40.5482845;-3.6415306
G179416;Mis Sushi;https://glovoapp.com/es/es/madrid/mis-sushi-madrid/;93.0;Av. de España, 17, 28100 Alcobendas, Madrid, España;40.5482845;-3.6415306
G179507;Antoñita Burger;https://glovoapp.com/es/es/madrid/antonita-burger/;99.0;Calle de Gonzalo de Córdoba, 16, 28010 Madrid, España;40.432407;-3.7021356
G179590;DESAYUNORICO;https://glovoapp.com/es/es/madrid/desayunorico-madrid/;99.0;Calle Sirio, 28, 28007 Madrid, España;40.4120127;-3.6640639
G179607;La Mendozina;https://glovoapp.com/es/es/madrid/la-mendozina-madrid/;100.0;Av. del Monasterio de Silos, 20D, 28034 Madrid, España;40.5002832;-3.714978
G180016;Pollo Rico;https://glovoapp.com/es/es/madrid/pollo-rico-madrid/;94.0;Av. del Dr. Federico Rubio y Galí, 33, 28039 Madrid, España;40.4512347;-3.7095394
G180375;Restaurante Chino Dinasty;https://glovoapp.com/es/es/madrid/restaurante-chino-dinasty-madrid/;94.0;Plaza Cronos, 5, 28037 Madrid, España;40.439906;-3.6186132
G180393;Pizza Porn;https://glovoapp.com/es/es/madrid/pizza-porn-madrid/;97.0;Calle de Hortaleza, 28, 28004 Madrid, España;40.4215606;-3.7000761
G181480;Poke Gold;https://glovoapp.com/es/es/madrid/poke-gold-madrid/;89.0;C. de Atocha, 116, 28012 Madrid, España;40.4093943;-3.6931759
G181505;Roberto Pizzería;https://glovoapp.com/es/es/madrid/roberto-pizzeria-madrid/;65.0;Paseo del Molino, 7, 28045 Madrid, España;40.3907159;-3.69391
G181789;Hass Kebab;https://glovoapp.com/es/es/madrid/hass-kebab-madrid/;84.0;C. de Alfredo Marqueríe, 17, 28034 Madrid, España;40.4873357;-3.7012565
G182196;Entrepanes;https://glovoapp.com/es/es/madrid/entrepanes-madrid/;90.0;Calle de Fernández de los Ríos, 89, 28015 Madrid, España;40.4351918;-3.7100999
G182529;El Socio;https://glovoapp.com/es/es/madrid/el-socio-madrid/;;Calle de Argüeso, 32, 28025 Madrid, Spain;40.3825304;-3.7265116
G182562;Bosforos Turkish Restaurant;https://glovoapp.com/es/es/madrid/bosforos-turkish-restaurant-madrid/;84.0;Calle del Arenal, 18, 28013 Madrid, España;40.4173793;-3.706807
G182569;La Taberna Inglesa;https://glovoapp.com/es/es/madrid/la-taberna-inglesa-madrid/;;Calle Eusebio Blasco, 6, 28019 Madrid, España;40.3976526;-3.717413430404613
G182839;La Mancha;https://glovoapp.com/es/es/madrid/la-mancha-madrid/;59.0;Calle de Fernández de los Ríos, 89, 28015 Madrid, España;40.4351918;-3.7100999
G183025;El Sabroso SS RR;https://glovoapp.com/es/es/madrid/el-sabroso-ss-rr-madrid/;89.0;C. Diego de Leon, 2, 28701 San Sebastián de los Reyes, Madrid, España;40.5471417;-3.6332563
G183247;Menta Y Chocolate;https://glovoapp.com/es/es/madrid/menta-y-chocolate-madrid/;;Calle de Santiago de Compostela, 48, 28034 Madrid, España;40.4826317;-3.7046706
G18566;Perritos Galipán;https://glovoapp.com/es/es/madrid/galipan/;87.0;Calle de Espoz y Mina, 9, 28012 Madrid, España;40.415488;-3.7022561
G185916;Sabroso Arguelles;https://glovoapp.com/es/es/madrid/sabroso-arguelles-madrid/;92.0;Calle de Rodríguez San Pedro, 71, 28015 Madrid, España;40.4315404;-3.7076843
G185989;Japonés Mishima;https://glovoapp.com/es/es/madrid/japones-mishima-madrid/;;Calle de López de Hoyos, 446, 28043 Madrid, España;40.471154;-3.6503995
G186027;O Cacho Do José;https://glovoapp.com/es/es/madrid/o-cacho-do-jose-madrid/;71.0;Plaza de Sta. Ana, 5, 28012 Madrid, España;40.4150326;-3.7004107
G186767;Brando Helado;https://glovoapp.com/es/es/madrid/brando-madrid/;100.0;Calle de Hortaleza, 55, 28004 Madrid, España;40.4264227;-3.6969068
G186830;Bar Alegría;https://glovoapp.com/es/es/madrid/bar-alegria-madrid/;;Av. del Chaparral, 11, 28701 San Sebastián de los Reyes, Madrid, España;40.5492182;-3.6302194
G186877;Indian Curry;https://glovoapp.com/es/es/madrid/indian-curry-madrid/;92.0;Calle de Bravo Murillo, 298, 28020 Madrid, España;40.4624584;-3.6972097
G187197;ANDES Empanadas Argentinas;https://glovoapp.com/es/es/madrid/andes-empanadas-argentinas-madrid/;98.0;C. de Zabaleta, 1, 28002 Madrid, Spain;40.4409254;-3.6753469
G187276;Il Pezzo Di Giuseppe;https://glovoapp.com/es/es/madrid/il-pezzo-di-giuseppe-madrid/;;Plaza de Sta. Ana, 7, 28012 Madrid, España;40.4144237;-3.7005074
G1878;La Arepera;https://glovoapp.com/es/es/madrid/la-arepera-madrid/;95.0;Calle de Tetuán, 20, 28013 Madrid, España;40.4176665;-3.7034359
G188210;La Redonda;https://glovoapp.com/es/es/madrid/la-redonda-madrid/;91.0;Av. de Europa, 25, 28023 Pozuelo de Alarcón, Madrid, España;40.4444685;-3.789951
G188218;Bar Garrovillas;https://glovoapp.com/es/es/madrid/bar-garrovillas-madrid/;95.0;Calle Garrovillas, 7, 28044 Madrid, España;40.379737;-3.779122
G189172;Madhattan;https://glovoapp.com/es/es/madrid/madhattan-madrid/;100.0;Calle del Porvenir, 16, 28028 Madrid, España;40.4246263;-3.6662207
G189192;Pupuseria Camino del Valle;https://glovoapp.com/es/es/madrid/pupuseria-camino-del-valle-madrid/;89.0;Calle de Lérida, 30, 28020 Madrid, España;40.4564778;-3.6999417
G189226;Tortillas Etiqueta Negra;https://glovoapp.com/es/es/madrid/tortillas-etiqueta-negra-madrid/;73.0;C. de Lombía, 5, 28009 Madrid, España;40.4251639;-3.6724745
G189821;Chido;https://glovoapp.com/es/es/madrid/chido-madrid/;;Calle de Sta Engracia, 54, 28010 Madrid, España;40.4343599;-3.6983127
G189846;Cómete México;https://glovoapp.com/es/es/madrid/comete-mexico-madrid/;91.0;Calle de Ríos Rosas, 7, 28003 Madrid, España;40.4422037;-3.7029884
G190250;Kebab Estación;https://glovoapp.com/es/es/madrid/kebab-estacion-madrid/;94.0;Calle de Membezar, 3, 28053 Madrid, España;40.3798315;-3.6682207
G19046;Villa Burritos;https://glovoapp.com/es/es/madrid/villa-burritos-madrid/;;Calle Santorcaz, 4, 28002 Madrid, España;40.4424654;-3.6802291
G190571;Mena Apulian Food;https://glovoapp.com/es/es/madrid/mena-apulian-food-madrid/;97.0;Calle del Humilladero, 16, 28005 Madrid, España;40.2842539;-3.795544511035424
G190654;Pollo Mad;https://glovoapp.com/es/es/madrid/pollo-mad-madrid/;80.0;Calle Vía Carpetana, 143, 28047 Madrid, España;40.4021873;-3.7300808
G190855;Plaza Compostela Restaurante;https://glovoapp.com/es/es/madrid/plaza-compostela-restaurante-madrid/;100.0;Av. de Las Águilas, 60, 28044 Madrid, España;40.3809884;-3.777457
G191001;La Pomarada;https://glovoapp.com/es/es/madrid/la-pomarada-madrid/;77.0;Calle del Conde Duque, 3, 28015 Madrid, España;40.4288136;-3.7095152
G191017;La Entretenida;https://glovoapp.com/es/es/madrid/la-entretenida-madrid/;99.0;Calle de Cervantes, 16, 28014 Madrid, España;40.414889;-3.6945481
G191394;La Andaluza;https://glovoapp.com/es/es/madrid/la-andaluza-madrid/;71.0;Av. de la Magia, 28100 Alcobendas, Madrid, España;40.5537159;-3.6574411
G191411;Q Deleite Parrilla Gus;https://glovoapp.com/es/es/madrid/q-deleite-parrilla-gus-madrid/;88.0;Calle de Ntra. Sra. del Pilar, 3, 28100 Alcobendas, Madrid, España;40.5438457;-3.6317865
G191898;Capasso Pizza;https://glovoapp.com/es/es/madrid/capasso-pizza-madrid/;89.0;C. de Atocha, 98, 28012 Madrid, España;40.4105337;-3.6958012
G191909;TarPos;https://glovoapp.com/es/es/madrid/tarpos-madrid/;96.0;Calle de Gravina, 21, 28004 Madrid, España;40.4227301;-3.6964386
G192311;Beirut Restaurante;https://glovoapp.com/es/es/madrid/beirut-restaurante-madrid/;;Calle de Miguel Servet, 9, 28012 Madrid, España;40.4068677;-3.701109
G1947;Sushi Zu;https://glovoapp.com/es/es/madrid/sushi-zu/;100.0;Calle Cidamón, 2, 28043 Madrid, Spain;40.45154410000001;-3.656950749999991
G19680;Castelnuovo;https://glovoapp.com/es/es/madrid/castelnuovo-mad/;;Av. de los Andes, 48, Madrid, Spain;40.456862;-3.6182503
G19720;Matsuri;https://glovoapp.com/es/es/madrid/matsuri-4/;99.0;Calle López de Aranda, 38, 28027 Madrid, España;40.443889;-3.6345377
G197974;Burger Gold;https://glovoapp.com/es/es/madrid/burger-gold-madrid/;94.0;C. de Atocha, 116, 28012 Madrid, España;40.4093943;-3.6931759
G198521;Pepe Grill;https://glovoapp.com/es/es/madrid/el-pepe-madrid/;72.0;Calle de San Vicente Ferrer, 38, 28004 Madrid, España;40.4258575;-3.7044434
G198541;Armood;https://glovoapp.com/es/es/madrid/armood-madrid/;82.0;Calle de la Cruz, 20, 28012 Madrid, España;40.4239888;-3.7070442
G198543;Palique Pozuelo;https://glovoapp.com/es/es/madrid/palique-pozuelo-madrid/;86.0;C. Peñalara, 2, 28224 Pozuelo de Alarcón, Madrid, España;40.4573153;-3.8026617
G19878;Yokaloka;https://glovoapp.com/es/es/madrid/yakaloka-madrid/;96.0;C. de Sta. Isabel, 5, 28012 Madrid, Spain;40.4117321;-3.6984768
G19884;Botania;https://glovoapp.com/es/es/madrid/botania/;80.0;Plaza de España, 5, Madrid, Spain;40.4226734;-3.7117077
G198900;Bacira;https://glovoapp.com/es/es/madrid/bacira-madrid/;99.0;Calle del Castillo, 16, 28010 Madrid, España;40.4337811;-3.6989949
G199329;Antonella;https://glovoapp.com/es/es/madrid/antonella-madrid/;94.0;Calle Diego Ayllón, 16, 28043 Madrid, España;40.4515331;-3.6511783
G199334;Giulietta;https://glovoapp.com/es/es/madrid/giulietta-madrid/;91.0;Pl. Manuel Rodrigo, 7, 28043 Madrid, España;40.460205;-3.6323043
G199335;Fellina;https://glovoapp.com/es/es/madrid/fellina-madrid/;90.0;Calle de Caracas, 21, 28010 Madrid, España;40.4307791;-3.6944733
G199690;Restaurante Fu;https://glovoapp.com/es/es/madrid/restaurante-fu-madrid/;84.0;Calle del Péndulo, 11, 28032 Madrid, España;40.394088;-3.6245302
G200471;King Donner Kebab;https://glovoapp.com/es/es/madrid/king-donner-kebab-madrid/;;Glorieta de los Carmenes, 1, 28047 Madrid, España;40.395458;-3.7437776
G200910;La Toquilla 2;https://glovoapp.com/es/es/madrid/la-toquilla-este-madrid/;73.0;Av. de Ntra. Sra. de Valvanera, 94, 28025 Madrid, España;40.39112;-3.7375108
G200920;Restaurante Sol;https://glovoapp.com/es/es/madrid/restaurante-sol-madrid/;92.0;Calle Villalonso, 31, 28021 Madrid, España;40.3493436;-3.7097794
G202378;Kebabish Pozuelo;https://glovoapp.com/es/es/madrid/kebabish-pozuelo-madrid/;100.0;Calle de Antonio Becerril, 10, 28223 Pozuelo de Alarcón, Madrid, España;40.4338145;-3.813472
G202444;Ramen Kagura Moratalaz;https://glovoapp.com/es/es/madrid/ramen-kagura-moratalaz-madrid/;97.0;Av. del Dr. García Tapia, 155, 28030 Madrid, España;40.4081343;-3.6316831
G20252;La Taqueria Del Alamillo;https://glovoapp.com/es/es/madrid/la-taqueria-del-alamillo/;100.0;Plaza Alamillo, 8, Madrid, Spain;40.4136204;-3.712463235747664
G202883;Piel Canela Gourmet;https://glovoapp.com/es/es/madrid/piel-canela-gourmet-madrid/;100.0;C. Valdesangil, 28, 28039 Madrid, España;40.4678212;-3.717195
G202984;Juicy Avenue Vegan;https://glovoapp.com/es/es/madrid/juicy-vegan/;100.0;Vía de las Dos Castillas, 33, 28224 Pozuelo de Alarcón, Madrid, España;40.4403647;-3.7866375
G203347;Pansito JR Burguer Burrito;https://glovoapp.com/es/es/madrid/pansito-jr-burguer-burrito-madrid/;;Calle Alpujarras, 4, 28032 Madrid, España;40.3964532;-3.6226306
G203360;Cachivache Taberna;https://glovoapp.com/es/es/madrid/cachivache-taberna-madrid/;95.0;Calle de Serrano, 221, 28016 Madrid, España;40.4447891;-3.6855962
G203675;Salino;https://glovoapp.com/es/es/madrid/salino-madrid/;78.0;Calle de Menorca, 4, 28009 Madrid, España;40.4194545;-3.678663
G203905;Restaurante Jardin De China;https://glovoapp.com/es/es/madrid/restaurante-jardin-de-china-madrid/;93.0;Calle del Balandro, 36, 28042 Madrid, España;40.45466515;-3.5892776466399234
G203984;Luna & Wanda;https://glovoapp.com/es/es/madrid/luna-and-wanda-madrid/;98.0;C. de Espronceda, 3, 28003 Madrid, España;40.4405573;-3.696109
G204695;Cocina Real;https://glovoapp.com/es/es/madrid/cocina-real-madrid/;;Calle de Cristóbal Bordiú, 52, 28003 Madrid, España;40.4430239;-3.6989556
G204765;Humita Empanadas Argentinas;https://glovoapp.com/es/es/madrid/humita-madrid/;;Calle del Príncipe de Vergara, 210, 28002 Madrid, Spain;40.4512149;-3.6772063
G204791;SABOR Y PLACER;https://glovoapp.com/es/es/madrid/sabor-y-placer-madrid/;92.0;Av. de Betanzos, 52, 28029 Madrid, España;40.4770232;-3.7117434
G205114;Bamboo;https://glovoapp.com/es/es/madrid/bamboo-madrid/;97.0;Calle del Dr. Drumen, 7, 28012 Madrid, España;40.4085475;-3.6933019
G205458;Ditaly Pizza Napolitana;https://glovoapp.com/es/es/madrid/ditalypizzanapolitana-madrid/;;Calle Eloy Gonzalo, 8, 28010 Madrid, Spain;40.4336353;-3.7034804
G2066;100 Montaditos;https://glovoapp.com/es/es/madrid/100-montaditos-madrid/;87.0;Calle de Narváez, 49, 28009 Madrid, España;40.4188298;-3.6759925
G207941;Burrito Gold;https://glovoapp.com/es/es/madrid/burrito-gold-madrid/;86.0;C. de Atocha, 116, 28012 Madrid, España;40.4093943;-3.6931759
G208959;Sultán Kebap Pizza;https://glovoapp.com/es/es/madrid/sultan-kebap-pizza-madrid/;98.0;Calle de Francos Rodríguez, 86, 28001 Madrid, Spain;40.4575858;-3.7102831
G209811;Restaurante Chamo;https://glovoapp.com/es/es/madrid/restaurante-chamo-madrid/;97.0;Calle de San Bernardino, 1, 28015 Madrid, España;40.424841;-3.7098715
G210944;Kebabek aravaca pozulo;https://glovoapp.com/es/es/madrid/rico-grill-aravaca-madrid/;96.0;Ctra. de Húmera, 92A, 28224 Pozuelo de Alarcón, Madrid, España;40.442992;-3.8030271
G211375;TORO Burger Lounge.;https://glovoapp.com/es/es/madrid/toro-manoteras-madrid/;90.0;Av. de Manoteras, 22, 28050 Madrid, España;40.487449;-3.6679579
G211377;Nacho's Pizza;https://glovoapp.com/es/es/madrid/nachos-pizza-madrid/;85.0;Calle de la Isla de Oza, 41, 28035 Madrid, Spain;40.4640641;-3.7223888
G211764;Mira Shusi;https://glovoapp.com/es/es/madrid/mira-shusi-madrid/;99.0;Calle Ugena, 5, 28025 Madrid, España;40.3740854;-3.7248603
G211894;Nazca Restaurante;https://glovoapp.com/es/es/madrid/nazca-restaurante-madrid/;93.0;Calle Francisco Villaespesa, 10, 28017 Madrid, España;40.42881075;-3.6453853428881926
G211919;Rico & Rico;https://glovoapp.com/es/es/madrid/rico-y-rico-madrid/;;Av. de Betanzos, 31, 28029 Madrid, España;40.4741049;-3.7116212
G212277;Santerra Neotaberna;https://glovoapp.com/es/es/madrid/santerraneotaberna/;96.0;Calle de Ponzano, 62, 28003 Madrid, España;40.4421192;-3.6989305
G212300;El Ingrediente;https://glovoapp.com/es/es/madrid/el-ingrediente-madrid/;100.0;Calle de Alenza, 5, 28003 Madrid, España;40.4434019;-3.700734
G213156;Fiera;https://glovoapp.com/es/es/madrid/fiera-madrid/;77.0;Costanilla de Capuchinos, 3, 28004 Madrid, España;40.4215465;-3.6995848
G214042;Masala Darbar;https://glovoapp.com/es/es/madrid/masala-darbar-madrid/;99.0;Calle de las Huertas, 53, 28014 Madrid, España;40.4133056;-3.696685725268578
G214130;Pizzico;https://glovoapp.com/es/es/madrid/pizzico-madrid/;88.0;Cl. de Ayala, 28B, 28001 Madrid, España;40.4277595;-3.6849943
G214489;Dala’s Restaurante Bar;https://glovoapp.com/es/es/madrid/dalas-restaurante-bar-madrid/;89.0;Calle de Enrique Larreta, 4, 28036 Madrid, España;40.4676518;-3.6862626
G214622;Urrechu Velázquez;https://glovoapp.com/es/es/madrid/urrechu-velazquez-madrid/;92.0;C. de Antonio Pérez, 26, 28002 Madrid, España;40.442803;-3.6819662
G214975;The Urban Kebab;https://glovoapp.com/es/es/madrid/the-urban-kebab-madrid/;;Calle de Matilde Hernández, 86, 28025 Madrid, España;40.385894;-3.7381151
G214976;Bam Bun;https://glovoapp.com/es/es/madrid/miss-sushi-100-vegano-madrid/;79.0;Av. de Brasil, 16, 28020 Madrid, España;40.4554728;-3.693156
G214995;Meraki Pita;https://glovoapp.com/es/es/madrid/meraki-pita-madrid/;;Calle de Matilde Hernández, 86, 28025 Madrid, España;40.385894;-3.7381151
G215331;Mil Manjares;https://glovoapp.com/es/es/madrid/mil-manjares-madrid/;96.0;Camino de las Hormigueras, 122, 28031 Madrid, España;40.3771237;-3.6308682
G21539;Foster's Hollywood;https://glovoapp.com/es/es/madrid/fosters-hollywood-madrid/;86.0;C/ Gran Vía, 57, 28013 Madrid, España;40.4683282;-3.8707172
G215810;Only Meat;https://glovoapp.com/es/es/madrid/only-meat-madrid/;52.0;Paseo de Santa María de la Cabeza, 1, 28045 Madrid, España;40.4068975;-3.6934749
G216432;F*ck burger;https://glovoapp.com/es/es/madrid/f-kitchen-madrid/;88.0;C. Laponia, 1, 28030 Madrid, España;40.4064241;-3.627131637163016
G216468;Smashed Burger's;https://glovoapp.com/es/es/madrid/smashed-burgers-madrid/;95.0;C. Laponia, 1, 28030 Madrid, España;40.4064241;-3.627131637163016
G216472;La Taguara;https://glovoapp.com/es/es/madrid/la-taguara-madrid/;91.0;C. de Méndez Álvaro, 32, 28045 Madrid, España;40.4008747;-3.6865187
G216485;The Hot Dogs;https://glovoapp.com/es/es/madrid/the-hot-dogs-madrid/;88.0;C. Laponia, 1, 28030 Madrid, España;40.4064241;-3.627131637163016
G216646;Roost Chicken;https://glovoapp.com/es/es/madrid/roost-chicken-mad/;86.0;C. de Salamanca, 21, 28020 Madrid, España;40.0632049;-3.6034555
G216675;Burritos & Tacos;https://glovoapp.com/es/es/madrid/burritos-and-tacos-madrid/;82.0;C. Laponia, 1, 28030 Madrid, España;40.4064241;-3.627131637163016
G216922;Gold Vegan Food;https://glovoapp.com/es/es/madrid/gold-vegan-food-madrid/;95.0;C. de Atocha, 116, 28012 Madrid, España;40.4093943;-3.6931759
G217;Cafeteria HD;https://glovoapp.com/es/es/madrid/cafeteria-hd/;94.0;C. de Guzmán el Bueno, 67, 28015 Madrid, España;40.4360368;-3.7132048
G217002;Frida Burritos;https://glovoapp.com/es/es/madrid/frida-burritos-madrid/;48.0;C. Pico de la Maliciosa, 6, 28038 Madrid, España;40.3939553;-3.657302046494334
G217406;Asador Pollo Rico Y Comidas Preparadas Caseras;https://glovoapp.com/es/es/madrid/asador-pollo-rico-y-comidas-preparadas-caseras-madrid/;84.0;Av. de Menéndez Pelayo, 55, 28009 Madrid, España;40.4160643;-3.6777638
G2176;New Bombay Palace;https://glovoapp.com/es/es/madrid/new-bombay-palace/;92.0;C. del Dr. Esquerdo, 140, 28007 Madrid, España;40.40502255;-3.6718760564521817
G218178;Bur Burger;https://glovoapp.com/es/es/madrid/bur-burger-madrid/;79.0;C. Pico de la Maliciosa, 6, 28038 Madrid, España;40.3939553;-3.657302046494334
G218473;Restaurante Chino Victoria;https://glovoapp.com/es/es/madrid/restaurante-chino-victoria-guadalajara-madrid/;85.0;Av. de Guadalajara, Nº 36, 28032 Madrid, España;40.4201624;-3.6184075
G218834;Pizza Nápoles;https://glovoapp.com/es/es/madrid/pizza-napoles-madrid/;69.0;P.º de Sta. María de la Cabeza, 1, 28045 Madrid, España;40.4068975;-3.6934749
G218861;Pasta Milano Zona Norte;https://glovoapp.com/es/es/madrid/pasta-milano-paseo-de-santa-maria-de-la-cabeza-madrid/;;P.º de Sta. María de la Cabeza, 1, 28045 Madrid, España;40.4068975;-3.6934749
G218862;La Takaña;https://glovoapp.com/es/es/madrid/la-takana-madrid/;85.0;Blvr. de José Prat, 35, 28032 Madrid, España;40.3973488;-3.6181042
G219196;Trattoria Bella Pizzería;https://glovoapp.com/es/es/madrid/trattoria-bella-pizzeria-madrid/;97.0;C. San Leopoldo, 68, 28029 Madrid, España;40.4696967;-3.6916634
G219834;Pizzería La Especial;https://glovoapp.com/es/es/madrid/pizzeria-la-especial-madrid/;89.0;Gran Vía de Hortaleza, 68, 28043 Madrid, España;40.4685578;-3.64572
G219913;Lola's Burger;https://glovoapp.com/es/es/madrid/lolas-burger-madrid-norte/;97.0;C. de Sarria, 40, 28029 Madrid, España;40.4755956;-3.7134887
G220338;La Pereirana;https://glovoapp.com/es/es/madrid/la-pereirana-madrid/;92.0;C. de Marcelo Usera, 36, 28026 Madrid, España;40.3865307;-3.7020957
G220839;Cachaparte;https://glovoapp.com/es/es/madrid/cachaparte-madrid/;85.0;C. de Coslada, 10, 28028 Madrid, España;40.4373125;-3.6752177
G221746;Organic Sándwiches;https://glovoapp.com/es/es/madrid/organic-sandwiches-madrid/;100.0;C. Naciones, 5, 28006 Madrid, España;40.4266994;-3.6738522
G222019;Organic Bowls;https://glovoapp.com/es/es/madrid/organic-bowls-madrid/;82.0;C. Naciones, 5, 28006 Madrid, España;40.4266994;-3.6738522
G222059;El Sabroso Ascao;https://glovoapp.com/es/es/madrid/el-sabroso-ascao-madrid/;95.0;C. de Pedro Antonio de Alarcón, 60, 28017 Madrid, España;40.42760705;-3.640437463558984
G222083;El Sabroso La Remonta;https://glovoapp.com/es/es/madrid/el-sabroso-la-remonta-madrid/;87.0;C. Magdalena Díez, 10, 28039 Madrid, España;40.4648535;-3.6963725
G222359;Five Guys;https://glovoapp.com/es/es/madrid/five-guys-madrid/;92.0;C/ Gran Vía, 44, 28013 Madrid, España;40.47100925;-3.871584612746
G222526;Abbasid;https://glovoapp.com/es/es/madrid/abbasid-madrid/;91.0;C. de Gravina, 17, 28004 Madrid, España;40.4228629;-3.6970058
G222530;Asturias Restaurante & Café;https://glovoapp.com/es/es/madrid/asturias-restaurante-y-cafe-madrid/;80.0;C. Andrés Obispo, 17, 28043 Madrid, España;40.4662848;-3.6483842
